ID,site,ALS,P1,P2,P3,T1,T2,T3,GR1,GR2,GR3,PM2.5_1,PM2.5_2,PM2.5_3,PM2.5_4,CO2_1,CO2_2,CO2_3,pop1,pop2,pop3,GDP1,GDP2,GDP3,area1,area2,area3,light,income,OBJECTID,name,name1,name2,GCPNT_LAT,GCPNT_LON,CTR_MN_NM,GRGN_L1
1,1,87.12809223,245.1750011,416.9250107,315.3000069,14.71819115,13.21675515,13.84248376,0.312845526,0.355159525,0.310195811,11.6309,9.872372,10.61908,11.854868,85814.02086,99542.00094,115911.8502,123181.2848,114315.4519,95796.29582,4174295040,3575510528,2890607104,42.0008049,39.90975952,37.21504974,19.10293946,4,1,Santa Maria,,,34.92312304,-120.4343724,United States,Northern America
2,1,38.54796203,324.9250069,481.5500031,297.7250099,15.27411008,13.86521363,14.01368928,0.358100922,0.385915147,0.319948806,10.93275,10.115544,9.863294,12.87748,28696.88158,34122.12768,41146.28303,67772.28886,65621.29096,57529.06097,1998785792,1747200000,1412516864,27.75946999,26.9114151,25.80799103,14.66914209,4,2,Monterey,,,36.60771997,-121.8823776,United States,Northern America
3,1,38.29809451,183.9250069,319.7000084,251.6750031,15.37690687,13.86678267,14.54504657,0.362784899,0.381240383,0.314719803,13.8037,13.21208,14.67398,16.6003,74573.38919,86569.54114,100559.2045,114753.1502,106699.8378,89487.12828,4159701504,3499959808,2829528576,38.10174942,36.592659,33.17510605,19.63392465,4,3,Santa Barbara,,,34.42766353,-119.7436927,United States,Northern America
4,1,24.08581144,324.9250069,481.5500031,297.7250099,15.27411008,13.86521363,14.01368928,0.353734305,0.364367517,0.315879162,11.86825,11.066058,11.13396,13.89952,59687.26805,71788.33202,86528.64173,101498.1456,99294.20529,85745.2469,3890861056,3446642176,2786424320,34.50740051,33.91244125,32.70763016,13.49151123,4,4,Santa Cruz,,,36.97127374,-121.9786845,United States,Northern America
5,1,21.30891932,324.9250069,481.5500031,297.7250099,15.27411008,13.86521363,14.01368928,0.339630554,0.362779151,0.35044232,12.3763,11.050886,11.20696,13.24922,161179.3121,193042.1333,235196.0325,149784.336,144965.5902,127204.9077,4813837312,4222660608,3413794048,41.04495621,39.39836502,35.75866699,24.16881129,4,5,Salinas,,,36.68899056,-121.6408306,United States,Northern America
6,1,21.89917854,238.6750031,394.6500168,313.0999947,17.05357695,15.53166127,16.23272729,0.299903009,0.327579511,0.285802321,17.0109,15.25618,16.9598,19.68142,289304.8887,325645.0395,392015.4205,297806.3934,264733.1155,231309.0712,10745822208,8725306368,7053940736,97.0435257,91.31808472,86.92906952,27.88130177,4,6,Oxnard,,,34.2174855,-119.2091316,United States,Northern America
7,1,19.73178283,324.9250069,481.5500031,297.7250099,15.27411008,13.86521363,14.01368928,0.365767528,0.366978482,0.341078812,12.48155,11.277852,11.32702,13.89084,51254.1102,61919.91051,74694.32542,54993.66046,53654.00409,46386.17435,1433503872,1271026176,1027556096,14.4429245,13.22449112,12.71467686,19.23893629,4,7,Watsonville,,,36.91958872,-121.7646884,United States,Northern America
8,1,41.40435654,354.3750038,530.0250015,331.6750107,15.53486609,14.40610623,14.36730981,0.306727058,0.321115869,0.274381031,11.9947,11.25792,11.37164,13.9966,10648158.21,13609720.81,15081732.13,4604961.31,4362804.672,3770562.836,1.76E+11,1.51E+11,1.22E+11,1307.057861,1288.983154,1237.971802,27.91794135,4,8,San Jose,,,37.32711544,-121.9332989,United States,Northern America
9,1,67.41640989,238.6750031,394.6500168,313.0999947,17.05357695,15.53166127,16.23272729,0.358960136,0.377343172,0.333054988,15.5254,13.71648,15.22172,17.5371,122928.4028,138305.2991,165550.3148,65878.92697,58524.14221,51267.91519,2048511360,1662225536,1343819392,30.94753265,28.09581184,25.23928261,21.04876865,4,9,Camarillo,,,34.22938861,-119.0329294,United States,Northern America
10,1,270.9833126,262.8000031,401.8249969,346.875,16.24344993,14.76368022,15.5053575,0.347211862,0.368272281,0.315878278,15.62365,13.11822,14.98262,17.62718,259393.1568,293018.8586,351363.0954,146356.3494,132072.0357,115187.1432,4934404608,4042643456,3268259328,71.09897614,68.88695526,60.91965103,17.62929514,4,10,Thousand Oaks,,,34.18196155,-118.8641047,United States,Northern America
11,1,172.5908688,236.1500053,301.4000053,307.8000031,17.60802174,16.09112787,16.86275053,0.293597406,0.322272072,0.268778915,16.4171,14.6612,16.507,19.35878,34164495.48,42084034.17,47389585.85,14281719.8,13183106.7,11426824.88,5.64E+11,4.73E+11,3.83E+11,4632.77002,4497.799316,3989.984863,37.90369685,4,12,Los Angeles,Los Angeles,Los Angeles,33.95381355,-117.9539253,United States,Northern America
12,1,491.324152,359.4000092,310.9250031,408.0750122,14.57306814,13.15471268,13.61543274,0.270224348,0.305093135,0.269560597,11.5835,11.1972,12.76708,13.8581,173276.718,149011.025,189586.6329,155147.2377,93461.85397,95911.2589,5517732352,3008664832,2432343296,49.90004349,49.07270813,36.49447632,17.96701826,4,46,Hemet,,,33.75498127,-116.9619559,United States,Northern America
13,1,138.2484666,172.7000008,239.9000015,199.1749992,18.45828629,17.1458168,17.68333769,0.310713709,0.354176766,0.324384188,18.18185,15.2652,16.34246,19.72246,35006.85468,35619.67199,43613.72474,57080.85864,44191.41595,40544.8804,1912310656,1332821120,1077513856,17.01180077,15.57923985,11.39173031,19.48476546,4,47,Porterville,,,36.07003664,-119.0345988,United States,Northern America
14,1,968.4534615,342.0000038,355.8749962,411.4250107,14.81475878,13.37538695,13.97738051,0.184925337,0.235868163,0.173023474,11.0788,9.159874,10.393722,10.67464,83816.81033,84682.74346,105576.5338,65263.50793,50809.32202,47460.57999,1865222528,1319094016,1066416256,26.00123978,17.16053772,6.707606316,18.14501415,4,50,Hesperia,,,34.47192121,-117.3479744,United States,Northern America
15,1,357.0236392,1003.100006,972.5000153,988.8750153,17.08189726,16.77888441,16.29893112,0.490197693,0.488991019,0.450673332,9.986725,9.515076,11.23617,14.13544,123356.4755,122711.5219,154787.4143,86091.09048,64334.06527,62771.2402,2347583488,1409486208,1163421952,43.63303757,40.6605072,35.686409,39.0581291,4,164,Norman,,,35.21845401,-97.4586917,United States,Northern America
16,1,149.8007158,1155.600021,1128.375061,1228.200027,16.76185107,16.59443426,16.05169058,0.530395528,0.501430762,0.467839601,11.34175,10.613332,12.78398,16.60504,58697.71535,65423.3916,79208.93094,75871.47508,67659.15803,60916.68173,1973286400,1395522304,1127216896,57.70063019,55.28725433,51.19536591,26.95890925,4,206,Fort Smith,,,35.35886988,-94.3958584,United States,Northern America
17,1,5.736099949,1719.725067,1553.75,1774.825043,20.84375858,20.63613844,20.28885508,0.501867243,0.505875973,0.473608609,10.1452,10.119644,12.60806,17.02962,27198.80856,30958.206,40649.51752,54570.6965,50429.29087,50277.93708,1642606336,1125374208,915563072,40.25456238,38.28622055,32.88609695,42.1207743,4,207,Houma,,,29.59322886,-90.72141179,United States,Northern America
18,1,353.2424062,740.7750092,669.6250153,614.7250214,9.754701853,9.74075985,9.900043488,0.543763763,0.515279923,0.464382377,11.9769,9.97148,11.61312,13.09932,545444.9321,808365.0186,628821.8617,77978.80623,80288.69935,76378.93965,2400945152,2019117568,1620711680,50.32192993,48.43178558,45.58046341,33.21938562,4,226,Sioux City,,,42.48789586,-96.38924836,United States,Northern America
19,1,243.4264417,964.1250153,944.7250214,877.2000122,9.189346671,9.493952274,9.154064298,0.519980976,0.517819214,0.472025703,12.35,11.7172,12.71302,17.80848,489878.1663,522535.587,705524.2734,133327.3041,104539.6065,109054.5384,4341065728,2987179264,2408129792,58.01398849,52.19287491,36.40686035,27.25083241,4,298,Elgin,,,42.0285433,-88.29317955,United States,Northern America
20,1,79.97400479,1093.100021,977.3750305,1034.925049,14.69545531,14.39945531,14.64114547,0.549375332,0.528218157,0.480816554,10.57224,10.690444,14.21046,17.21536,242804.9865,226239.4069,282641.1047,108080.8897,76199.90046,75011.54435,3050465024,1839139072,1491608960,38.86784744,34.96699524,23.60736084,34.42362841,4,367,Manassas,,,38.76747066,-77.48742126,United States,Northern America
21,1,269.1232121,1064.475037,1031.850006,953.8750153,8.983644009,8.695963264,8.901338577,0.470636844,0.451663197,0.40330081,9.730155,9.471458,11.81324,14.10826,17891.28943,22209.78013,25593.45068,54087.53024,54882.36169,46621.21085,1860819712,1552378368,1342784256,19.65092468,19.48503876,19.13605118,39.18006182,4,423,Binghamton,,,42.10711766,-75.9258854,United States,Northern America
22,1,72.85044232,999.0750122,933.6000214,900.8500214,6.633110762,6.46277523,6.205799699,0.508184952,0.490476876,0.469480455,7.112595,7.121136,8.35791,9.62892,7270495.378,4178798.751,3363439.421,710584.0829,555557.8447,466662.4724,17238886400,12266247168,10355637248,188.7410736,178.6539307,166.9317322,54.76642943,4,466,Ottawa,,,45.41781152,-75.69404691,Canada,Northern America
23,1,59.44622619,1184.725037,1164.925018,1243.025024,9.893814564,9.627009869,9.539937496,0.499681101,0.504736549,0.467907973,10.236,9.433866,11.5194,13.62098,295641.2477,357680.0256,437805.5528,252946.3824,250866.6767,223106.1759,10416934912,8878080000,6688444416,99.78312683,98.3056488,91.4185791,35.43383505,4,481,Springfield,,,42.14635469,-72.56855492,United States,Northern America
24,2,25.61993954,114.3500023,138.0750027,171.375,20.20465946,20.07462597,19.49744129,0.089554519,0.089998506,0.042676924,14.2618,11.24056,11.41564,9.092908,7267.084029,10007.20384,7480.131289,58676.25432,47039.22403,41997.00995,1115196416,954470080,671939840,3.801659822,3.759195328,2.944268942,39.5208812,4,658,Arrecife,,,28.96530323,-13.56254447,Spain,Europe
25,2,54.93296591,840.2250214,849.3250275,657.6000214,8.911157846,8.912273884,8.728509665,0.518310373,0.482686795,0.436105038,9.05,9.625386,10.956922,11.020474,150340.0372,218663.6313,214996.7506,84621.21533,85326.32235,88451.36733,1128616192,981382656,875484480,20.25052452,19.38540649,18.79632568,30.54628741,4,779,Birtley,,,54.89029724,-1.543691559,United Kingdom,Europe
26,2,54.88903143,840.2250214,849.3250275,657.6000214,8.911157846,8.912273884,8.728509665,0.452081753,0.452960624,0.397066674,10.7417,11.52772,12.92944,12.73776,30017.16904,40818.80119,38503.25029,87295.97935,79001.69939,76199.24783,1083269376,847362880,755926208,15.53578663,15.04807091,14.79845524,22.35461844,4,780,Darlington,,,54.53106012,-1.550412325,United Kingdom,Europe
27,2,140.6793166,771.7500153,817.2750244,617.1750183,10.63133574,10.65979695,10.36032057,0.452500781,0.437875611,0.377855369,11.9302,12.131736,13.5498,14.4033,151018.184,201222.9831,188128.1943,258189.2551,227359.8889,215050.7588,4129475584,3062501376,2664824832,41.32867813,40.51596832,40.00741577,23.91681399,4,808,Luton,,,51.89676351,-0.454396779,United Kingdom,Europe
28,2,26.32853681,793.3500061,845.3250122,628.25,11.3539412,11.45660686,11.04110718,0.444855572,0.436375341,0.391830175,17.05015,16.80922,18.52292,19.26986,27230.88363,38002.47481,36486.68691,111282.0142,103564.879,101682.1276,3106563072,2343456768,1751484160,22.2788372,21.61203003,21.15487099,14.20155621,4,858,Margate,,,51.36296074,1.403162385,United Kingdom,Europe
29,2,138.9423358,910.0000153,1031.050018,882.3250275,11.15745115,11.23605967,10.76436424,0.491236831,0.443240794,0.370927884,14.18745,14.94486,15.78012,16.89768,2185089.935,5545646.554,6473675.336,253691.4586,250645.4756,258483.9941,3408614912,3043284480,2579022336,84.03504944,82.50475311,79.39054871,22.4580657,4,910,Charleroi,,,50.4276041,4.440296118,Belgium,Europe
30,2,364.8165683,1856.450043,2170.850067,1768.000031,6.081002593,5.621508479,5.324835777,0.466222531,0.453478069,0.334580276,24.79115,21.82402,23.466,26.96688,27945.60929,31775.57448,39082.35131,75961.58441,67756.19443,64120.78107,1704957696,1173169792,1164249728,9.446400642,8.395554543,7.70253706,17.98086031,4,1067,Lugano,,,46.01191181,8.952091784,Switzerland,Europe
31,2,68.23315451,788.4500275,833.2250061,816.0250244,11.56609869,11.1753068,10.53893304,0.380084968,0.358357337,0,25.30665,21.30324,23.11614,26.02448,84642.47053,153040.6901,150947.3837,421341.9565,421812.2984,430887.8174,7692119552,8999675904,7421722624,40.34810257,39.00671387,35.35987091,30.5736979,4,1164,Bologna,,,44.4937077,11.32900303,Italy,Europe
32,2,98.16614341,699.6750031,784.2000122,758.2750092,16.28626204,15.99062014,15.28552079,0.393361408,0.388733095,0.313740576,16.4875,16.48908,17.06456,16.41614,25872.6985,42758.38246,40210.66366,74302.67802,64155.14084,59554.40876,1152100608,1008534528,832679680,12.48992348,12.18425941,11.54014778,20.75920643,4,1220,Tivoli,,,41.95952063,12.75594934,Italy,Europe
33,2,24.90192296,1239.075058,1144.375,943.3249969,13.54192305,13.05048537,12.18557644,0.399711662,0.372524021,0,19.76505,18.8526,18.4322,18.42086,318712.5439,351310.4545,394450.2844,218496.824,218831.7911,229791.1101,2375596032,1740573568,2238784256,35.22311401,35.00345612,34.71860504,29.82491944,3,1272,Split,,,43.52333838,16.45850316,Croatia,Europe
34,2,120.8395357,504.2249985,572.8000183,436.2250061,9.768323421,9.451970816,9.087091446,0.457462189,0.451563814,0.39671044,25.1245,24.95474,24.93722,26.0707,20363.74553,26192.59446,23882.15092,78652.30444,84763.37692,89441.71921,965049408,618026752,366518784,13.87282562,13.12269783,12.17493343,29.15675891,4,1273,Kalisz,,,51.75126851,18.08097999,Poland,Europe
35,2,185.1445026,541.75,604.4750061,464.9250031,9.613443136,9.332604885,8.904517651,0.490554558,0.482536101,0.400633435,26.30565,27.02204,26.72544,28.0512,13441.76636,17692.3226,16257.4157,62387.26709,69781.83972,74399.80994,430036832,287053952,244945920,10.61282444,10.19016075,9.726408005,22.01856438,4,1305,Pabianice,,,51.66304207,19.35998864,Poland,Europe
36,2,353.9069405,1049.525009,1144.625,983.4250031,7.375802398,6.779807091,6.138780475,0.436971687,0.437950275,0.324588847,27.63665,27.01456,28.2441,29.9401,13735.45843,20829.69875,47026.67907,61025.27448,66738.96906,70176.08154,655545472,368089440,326543424,13.88748169,13.39418983,12.67090034,26.2183604,4,1306,?ilina,,,49.21322953,18.74077931,Slovakia,Europe
37,2,21.2140542,697.2750244,523.4500198,494.6750107,13.18298817,12.83874869,11.98897529,0.329546822,0.328329899,0.267349592,18.6003,18.4452,17.57414,19.711,55654.36881,70905.03056,186972.7299,249829.1426,298564.0314,307344.3508,3889937408,2482936832,2705006592,31.47718811,30.39864922,27.35327721,30.38708974,3,1438,Constan?a,,,44.18857512,28.62576158,Romania,Europe
38,2,35.05284913,505.9250107,478.0500031,491.8000031,11.36463642,11.00620174,10.45204997,0.503584705,0.462578752,0.355627352,17.67355,17.47556,16.70142,19.06934,6264.204096,4797.260392,18381.69598,75069.10608,96219.21912,114279.1758,156413088,97349776,269216608,15.65730858,15.41007423,13.79539204,4.457526557,2,1439,Bender,,,46.82629668,29.47437427,Moldova,Europe
39,2,70.95259089,509.0750122,513.1250153,526.8499985,10.02642655,9.532044411,9.169208527,0.444535389,0.455344415,0.245704617,18.02885,17.95754,17.62364,19.8654,159050.9351,284624.6963,956960.1543,213125.3783,227750.5073,235367.4286,895703232,593921792,1393186176,39.58316803,37.59992218,35.19446945,8.125791408,2,1476,Kremenchuk,,,49.0698651,33.44474038,Ukraine,Europe
40,2,224.5383147,493.4750137,543.1750031,520.1500168,9.982760191,9.398543835,8.804084778,0.52256278,0.445489121,0.358969696,15.8583,16.12552,15.31768,15.924,20237.16387,69262.26422,198010.0834,101471.3568,114264.6974,122760.2885,407842112,308233312,625705088,12.68658257,12.55214024,11.55245781,2.118365638,2,1603,Khartsyzk,,,48.04214546,38.13892385,Ukraine,Europe
41,2,21.45120667,410.9250107,471.4500122,457.8750076,8.65987134,8.219222426,7.931984901,0.436170851,0.428753146,0.368034961,19.7098,18.5041,17.5903,17.80234,155137.0287,162184.6945,236728.682,143216.5252,165809.1636,186481.809,777696320,666573312,1277447424,34.33899689,33.40589142,32.47128296,31.21396809,3,1754,Engels,,,51.48194771,46.12428355,Russia,Europe
42,2,-7.57342831,370.3500061,353.0999985,402.7500076,13.12028694,12.90584993,12.42486191,0.424285999,0.39424307,0.015474498,22.87855,20.45876,17.88422,18.15498,10476.10297,8232.936275,9605.501731,54838.69458,43606.53729,37272.28864,217375504,69606080,97878296,8.374875069,8.242893219,6.266061306,9.585055716,3,1930,Kizlyar,,,43.84681462,46.71498615,Russia,Europe
43,1,45.40498971,1373.225037,1308.974976,1412.950012,10.09080839,9.236938,9.456313133,0.494375497,0.50427499,0.480225137,6.865475,6.337876,6.63672,7.674412,69390.00643,70098.70739,83644.77773,72912.47575,56065.61115,51302.7208,2322117120,1550503168,1186617216,28.01408577,27.01240921,24.22456551,20.46007132,4,2030,Bellingham,,,48.75706462,-122.4845974,United States,Northern America
44,1,1427.091724,453.4750061,416.8500061,408.0999985,9.965675116,9.378433228,8.925752163,0.421691289,0.440756491,0.454934456,9.687195,10.042966,11.55516,10.478414,280681.9683,245322.4533,268364.762,308567.99,188901.2797,158879.0535,7771781120,4145303296,3171064576,89.23719788,87.42388153,79.37135315,27.18689084,4,2032,Provo,,,40.31560935,-111.7210065,United States,Northern America
45,1,1363.408108,556.5250092,518.7500076,502.7500153,8.083596945,7.444403052,7.054017305,0.399214372,0.423711253,0.419390731,9.37796,9.559812,11.00016,10.079438,2202203.022,2482144.055,2535664.276,972714.6253,805627.0179,599903.4894,25658839040,18489362432,14143937536,375.0001221,363.967926,317.3310547,33.76538938,4,2033,Salt Lake City,,,40.64504711,-111.9172804,United States,Northern America
46,1,65.9373159,2202.675049,2144.275024,2335.525085,10.42813611,9.628575087,9.791603565,0.488602804,0.519860827,0.486396287,6.83037,6.46724,6.745398,7.6781,237599.0569,133166.1233,105458.269,80089.42749,61906.14409,51256.88236,1431045632,938398400,883703040,21.21393967,19.22528076,16.43041229,20.70001079,4,2034,White Rock,,,49.04142125,-122.8150515,Canada,Northern America
47,1,1596.455832,353.7500038,350.0250092,415.3250122,11.74142146,11.47435808,10.68446422,0.262688979,0.291320737,0.282611862,6.863455,6.974018,8.211202,8.652916,896448.9365,904265.7809,1013871.367,685933.7471,525135.5229,439174.4894,20705083392,12511123456,10298384384,333.0494385,303.649292,262.0429993,30.61359248,4,2036,Albuquerque,,,35.12903763,-106.629162,United States,Northern America
48,1,36.08676506,2202.675049,2144.275024,2335.525085,10.42813611,9.628575087,9.791603565,0.427458267,0.474537497,0.469807778,6.451795,6.125634,6.34884,7.24398,714701.7234,402345.0849,321612.4624,100129.9703,77630.86456,64788.25891,2058758912,1334031232,1256276352,26.38320351,22.34272385,19.81923485,30.18872038,4,2039,Langley,,,49.10893061,-122.6913885,Canada,Northern America
49,1,1121.750743,466.2500076,475.1250076,515.7500076,15.45939684,14.97403836,14.21828938,0.395500289,0.391300535,0.359268173,6.33744,6.126652,7.171698,8.61922,127808.4996,140452.1939,146232.7244,163844.6382,142436.156,107751.8532,4928767488,3714059264,2840502016,96.16807556,90.52024841,84.84143829,36.70263008,4,2076,Amarillo,,,35.18505829,-101.8644514,United States,Northern America
50,1,181.8119052,1023.050003,926.6250153,1045.025009,19.27159834,18.91534138,18.48534775,0.429346067,0.430091473,0.389659952,10.3632,9.357422,11.4509,15.81682,10453768.72,10455556.95,11896260.58,5165561.23,3918983.537,3320023.328,1.85E+11,1.22E+11,93432774656,2600.175293,2370.45874,1811.940186,38.7332215,4,2083,Dallas,,,32.8573485,-96.96526227,United States,Northern America
51,1,97.85921531,1320.225067,1360.125,1524.100037,16.69794965,16.7102232,16.53145075,0.564653725,0.529503513,0.518394959,10.80425,10.17856,12.1371,16.80672,337391.0295,397962.6768,448665.6073,145699.6191,141360.3947,114599.6734,4316464640,3692745472,2896584960,78.22354889,70.50596619,36.0308342,32.74870381,4,2126,Bartlett,,,35.18355843,-89.80999032,United States,Northern America
52,1,443.6241363,663.5750122,609.3250122,523.5000153,8.029265165,8.181472659,7.950929403,0.466411962,0.46203117,0.413802399,10.40802,8.743324,10.598954,12.21518,128446.7177,135953.6847,182103.2913,131671.841,105811.1661,106669.4191,3936965888,2477474560,1903938304,62.37478638,58.6717186,39.34977722,45.01253974,4,2127,Sioux Falls,,,43.53083636,-96.74012471,United States,Northern America
53,1,8.234213763,1601.025085,1249.700043,1479.025024,20.60382986,20.18935585,20.33833551,0.457291627,0.444847276,0.407230384,9.247345,9.24872,11.65576,15.54632,65866.62641,75334.89506,81898.41391,80731.27682,72338.2804,59149.63949,3212887808,2507523584,2117076480,62.12311172,60.22086716,52.43953705,17.78923932,4,2128,Navarre,,,30.42103266,-86.68849029,United States,Northern America
54,1,577.7279433,416.5500107,377.1500015,375.2750092,4.228455245,4.229432285,4.480766177,0.379141251,0.38956832,0.31727597,6.164735,5.258744,6.042862,6.568556,989367.5426,802826.1758,702823.0637,198023.382,161227.4181,138820.782,4416085504,2903278080,2300366592,65.4363327,59.18441391,54.88344955,60.15903037,4,2135,Regina,,,50.45621301,-104.6078177,Canada,Northern America
55,1,274.9435185,908.9500122,772.75,823.4000397,10.30936503,10.35698938,10.14791846,0.536809501,0.513761724,0.48926004,10.21617,9.90174,11.67708,14.22176,390457.8647,410033.8776,548153.9029,338848.0597,269376.094,275792.4402,10345088000,6772421120,5439527936,213.9273987,193.8910065,155.9709778,36.88654159,4,2152,Des Moines,,,41.60050713,-93.68455903,United States,Northern America
56,1,290.7675764,907.8250427,799.3750153,827.8500061,9.599559784,9.647086143,9.429380178,0.526753015,0.513145257,0.488477722,10.510405,9.771628,11.87084,14.30538,47700.87772,52096.04252,66742.16244,53702.68432,46283.13186,44092.13878,1587624576,1121666816,900909440,28.71746063,25.12240601,19.18078613,30.78287391,4,2156,Ames,,,42.02793996,-93.63106975,United States,Northern America
57,1,76.93581798,1490.225006,1249.000061,1387.600037,18.80465984,18.50978804,18.7232604,0.512806645,0.491269179,0.46065984,11.3375,11.40764,14.81048,19.5089,214579.0972,258304.4233,308974.3336,143898.0402,140797.913,123314.5261,4288398592,3481572096,2853780992,92.23524475,85.49810791,71.38600922,34.33164702,4,2157,Montgomery,,,32.36013413,-86.24918667,United States,Northern America
58,1,163.0952796,1057.825027,896.3000336,908.5500336,13.77023435,13.62832713,13.5094142,0.521739986,0.492171217,0.464931202,11.3387,10.120058,11.88886,17.29806,686706.0896,667764.3736,931821.8399,237694.5714,168900.8277,185283.4914,6452351488,4006056960,3190483712,103.8654785,96.20840454,70.89966583,26.15684666,4,2158,O¡¯Fallon,,,38.77731247,-90.61186061,United States,Northern America
59,1,182.6728095,1057.825027,896.3000336,908.5500336,13.77023435,13.62832713,13.5094142,0.567622388,0.552757824,0.502452017,10.50968,9.408748,11.132204,16.26838,255679.5622,323201.3962,379781.88,100875.7448,105079.0819,88779.90224,3036911104,2766829568,2203545088,49.37995911,46.56539536,40.39005661,25.13374221,4,2159,Chesterfield,,,38.60633443,-90.53697973,United States,Northern America
60,1,216.7667572,930.3249969,825.9500122,774.375,10.46697307,10.53802896,10.25229144,0.507404353,0.480847588,0.453315635,12.64715,11.2689,13.06876,16.79222,54258.71222,56525.99921,76304.26552,71884.52148,57404.64488,59302.56451,1608254208,1051707456,844719168,29.05860329,26.8272419,21.40709305,34.25119873,4,2173,Iowa City,,,41.66206945,-91.54405182,United States,Northern America
61,1,198.6795268,920.3000336,936.2250061,870.5500031,8.904228568,9.060785055,8.813619614,0.494644076,0.452481193,0.372906663,12.0658,11.87116,12.91264,17.53786,256061.8025,282354.2915,362619.2093,111795.6334,96685.78522,93686.27242,3329089024,2529473792,1971978880,59.37284851,48.83533096,28.75307465,26.73030417,4,2275,Kenosha,,,42.58178106,-87.85919926,United States,Northern America
62,1,228.2926203,875.3500214,863.5999908,799.5750122,8.331288576,8.503917456,8.264240861,0.488107477,0.482287523,0.405712719,11.08545,10.592492,11.73584,15.96854,2057835.156,2581549.579,2941464.067,1101829.808,1087425.582,914033.2061,34928816128,30350090240,23660945408,545.0373535,510.0213623,406.7815552,38.02900727,4,2276,Milwaukee,,,43.03168731,-88.0110039,United States,Northern America
63,1,198.3322668,920.3000336,936.2250061,870.5500031,8.904228568,9.060785055,8.813619614,0.488751182,0.472457807,0.397665278,11.78095,11.60968,12.77414,17.47508,275357.3938,323202.7778,400021.2773,119893.9086,115841.4459,103831.9292,4067613440,3430990080,2674800384,71.2134552,63.37763596,50.40542984,22.00701992,4,2278,Racine,,,42.7279975,-87.82199761,United States,Northern America
64,1,263.1076106,1110.275024,1049.000031,1143.375,12.4599762,12.53378081,12.26328754,0.540526541,0.509386465,0.499331114,11.162935,10.65176,13.04776,17.22872,199961.1327,214542.5847,277323.4847,102684.9922,77470.06453,80492.91802,2501364736,1647129600,1289353216,54.15880966,47.35646439,33.68540955,27.1939627,4,2280,Florence,,,39.00373335,-84.62521719,United States,Northern America
65,1,220.8010947,1099.675034,1011.599991,1123.100021,12.43175149,12.4259212,12.19838429,0.513981463,0.481668731,0.449516346,12.8798,12.3019,14.68338,18.77534,3331578.12,4268299.806,5239364.258,764046.6174,766713.3009,714658.3853,22776684544,20941467648,17130152960,414.3180237,390.179718,316.2034302,29.94386326,4,2282,Cincinnati,,,39.2369108,-84.46200196,United States,Northern America
66,1,214.0232756,993.4250336,952.0250244,989.7750092,9.560198069,9.555567265,9.293088436,0.519235192,0.506229037,0.466205544,10.743625,10.207316,12.3426,15.15898,573845.8439,671536.746,947791.9655,387107.4497,364358.0621,381631.5029,10562787328,9701539840,7802211328,207.9600677,196.7937164,178.9541626,25.21456653,4,2290,Grand Rapids,,,42.92003525,-85.67070265,United States,Northern America
67,1,186.9222749,882.7250061,866.4250031,855.3500061,10.04414821,10.1746161,10.1761651,0.486811228,0.435905537,0.41444277,14.33245,13.46556,15.94882,20.2326,1902498.287,2773099.392,2782343.107,248621.181,262951.3393,236701.248,7628230144,7361122304,6039193600,145.6971283,141.4785919,133.1916199,40.13034,4,2295,Toledo,,,41.67408047,-83.548263,United States,Northern America
68,1,23.46419329,1294.125031,1170.925018,1242.400024,16.27441216,15.83445644,15.84208512,0.543308724,0.515425762,0.497782817,8.751475,9.89935,13.0747,18.50892,37188.16306,34513.3174,38124.96496,60423.32658,43290.75478,36363.83445,1507979776,1006638208,783419712,28.56004334,25.3591671,19.75953102,39.86057295,4,2331,Greenville,,,35.58875777,-77.36675601,United States,Northern America
69,1,33.90108479,661.2500191,965.4000397,630.6500092,14.88496685,13.76570511,13.74388289,0.450231396,0.448649514,0.39383323,9.3035,9.10172,8.84332,11.12748,223877.5156,269897.7158,314044.1246,105705.565,104164.0793,87088.13804,3647301888,3255841280,2632171776,44.19630814,41.52772141,37.2756424,13.21832811,4,11,San Rafael,,,37.96859272,-122.5273755,United States,Northern America
70,1,16.85365879,668.4000206,959.2750092,606.9500122,15.28851104,14.23627567,14.27060604,0.414440056,0.422187076,0.410364563,8.73019,8.72416,8.53746,10.008758,37653.10589,43605.88468,54269.1961,55779.49152,52297.68909,48123.38054,1748830592,1487807616,1202812288,26.19052696,24.9784317,22.83242226,16.4420196,4,13,Petaluma,,,38.24622195,-122.6323799,United States,Northern America
71,1,291.1461131,262.8000031,401.8249969,346.875,16.24344993,14.76368022,15.5053575,0.311866029,0.347148678,0.292177601,15.78465,13.3338,15.18466,17.38848,283981.7304,323170.5989,386271.7866,109579.4602,97691.3734,85394.1172,2892286720,2423264000,1959078144,41.97615814,40.21892166,36.68222809,20.24540684,4,14,Simi Valley,,,34.27227869,-118.740073,United States,Northern America
72,1,58.84013425,668.4000206,959.2750092,606.9500122,15.28851104,14.23627567,14.27060604,0.432148958,0.426225917,0.39083626,8.576595,8.965312,8.721134,10.411838,196346.8296,228817.9022,287834.0378,165225.2385,155176.2631,142066.8459,5611033088,4771040256,3857128960,62.12906647,59.0141449,52.31056976,17.92204125,4,15,Santa Rosa,,,38.44448407,-122.7137258,United States,Northern America
73,1,76.91126156,354.3750038,530.0250015,331.6750107,15.53486609,14.40610623,14.36730981,0.394053769,0.391619728,0.347470004,10.71603,9.838932,9.917736,12.40823,4280759.508,5832805.161,6065033.725,661553.5774,596103.3295,540130.207,23064424448,18897993728,15278001152,279.0698853,266.5095825,239.2653046,17.36457904,4,16,Concord,,,37.91394614,-122.0483181,United States,Northern America
74,1,113.920086,179.8000031,180.3250046,222.7250042,18.3498106,16.84046793,17.49774694,0.272433308,0.294383148,0.246674755,14.41595,13.4959,14.95202,18.30812,6663229.534,6827509.854,7465487.737,4437234.748,3737885.481,3149087.304,1.34E+11,1.08E+11,87873167360,1160.308838,1096.079346,907.890686,21.39731278,4,18,Tijuana,,,32.82158244,-117.1106947,United States,Northern America
75,1,158.2858012,400.6999969,578.0250092,377.3999939,15.12280512,13.96902299,13.94401574,0.325405154,0.334594353,0.331269725,10.778955,9.431796,9.68652,12.285852,134378.2983,155429.4916,188927.4899,73006.67113,69521.63683,61225.4289,1898732800,1633387776,1320506368,37.21602249,34.97929382,26.38381004,21.65080537,4,19,Livermore,,,37.68840859,-121.7539797,United States,Northern America
76,1,412.5148947,262.8000031,401.8249969,346.875,16.24344993,14.76368022,15.5053575,0.316168443,0.33110693,0.280458219,13.43175,12.15088,14.0032,15.57032,509702.93,602772.3598,698959.7589,199622.2104,194359.1677,161548.5552,6775972352,5975117312,4830559232,71.78395081,61.84192276,43.96575546,32.70537222,4,21,Santa Clarita,,,34.42012237,-118.5319524,United States,Northern America
77,1,20.37427493,553.2250061,795.1250153,511.9250031,15.37228203,14.32863712,14.24008513,0.419812597,0.416723424,0.377949288,10.23819,9.714598,9.695066,12.268596,28808.78156,31316.53217,37283.55494,74611.72537,66041.29825,57706.11752,2396844288,1916320896,1549242112,26.14744186,25.18840218,22.77952003,13.16688165,4,22,Napa,,,38.3087824,-122.3012615,United States,Northern America
78,1,31.70000336,400.6999969,578.0250092,377.3999939,15.12280512,13.96902299,13.94401574,0.335976406,0.348293249,0.313837433,12.25195,10.920336,11.20332,14.57472,466495.804,512145.0216,635981.2535,268055.6356,234536.2965,215842.531,9873784832,7846402048,6343389184,104.2041779,93.15797424,69.12152863,18.36607679,4,23,Antioch,,,37.98543292,-121.7975158,United States,Northern America
79,1,19.37077525,553.2250061,795.1250153,511.9250031,15.37228203,14.32863712,14.24008513,0.386309122,0.383340575,0.350689955,11.28725,10.05375,10.22965,12.93462,149595.6966,176059.3578,219583.2533,93335.49432,89118.10815,80936.95331,3157856768,2719389184,2198479872,31.67541504,30.19189453,27.12307167,18.08434176,4,24,Fairfield,,,38.2640129,-122.0302527,United States,Northern America
80,1,20.73777047,277.8250027,387.6750107,264.5000076,17.04826498,15.78851843,15.7457211,0.335667005,0.368654391,0.401968598,13.5235,11.571642,11.9267,15.29302,272536.5793,359068.3755,255197.4645,91449.60626,69314.25367,63053.24717,3221034752,2217385984,1792637696,35.95515823,32.17883301,21.81878281,24.30054599,4,25,Tracy,,,37.73007868,-121.4314133,United States,Northern America
81,1,128.5494254,83.35000134,130.2750015,111.0250015,19.10495472,17.61701679,17.97289371,0.289594951,0.344054695,0.307485353,15.1119,12.76312,14.38446,16.6687,1084079.437,1249973.163,1385591.146,533318.4537,378867.9337,358283.3232,19165773824,12353682432,9987291136,234.8613434,219.5639038,176.6619415,22.72763555,4,26,Bakersfield,,,35.36381044,-119.0475354,United States,Northern America
82,1,44.20911101,336.8000069,480.8500137,318.8500137,16.96158934,15.91168189,15.84672594,0.395443985,0.383436403,0.354763297,12.00745,10.446202,10.6364,13.54484,104173.2286,121904.1503,150906.0129,76952.19238,72891.92517,65858.43231,2309909504,1983129088,1603253248,25.83078957,23.71286964,14.64728546,25.11479228,4,27,Vacaville,,,38.34685897,-121.9694469,United States,Northern America
83,1,777.7760568,255.7500076,345.2500038,321.4000092,15.09001136,13.66713548,14.3274951,0.247125702,0.291256587,0.234274454,10.9893,9.221472,10.715454,11.730032,193702.0374,231312.2599,267752.901,277181.2072,268775.432,224858.3794,9413058560,8286586880,6699256832,99.03132629,84.78543854,61.19007492,34.27562492,4,29,Palmdale,,,34.58484845,-118.1317197,United States,Northern America
84,1,11.57996354,277.8250027,387.6750107,264.5000076,17.04826498,15.78851843,15.7457211,0.348484022,0.39628867,0.389262192,13.8141,11.81635,12.16158,15.79494,64002.183,63531.23768,76314.63836,61668.58715,46833.16094,42650.45832,1788568448,1233228544,996998912,24.23267746,23.2372818,20.57415581,19.6733169,4,30,Manteca,,,37.79991498,-121.2197198,United States,Northern America
85,1,5.670989942,277.8250027,387.6750107,264.5000076,17.04826498,15.78851843,15.7457211,0.371861084,0.391635688,0.381333668,13.20855,11.131124,11.57092,14.99624,665614.2745,671250.3309,813151.9164,365617.9699,277287.1543,251918.321,13534003200,9344710656,7554696704,142.0906219,130.355545,116.1637421,25.71500152,4,31,Stockton,,,37.97378272,-121.2952444,United States,Northern America
86,1,27.84016726,300.4500103,407.7750015,297.9250107,17.77433062,16.49131393,16.54368782,0.349890269,0.376421257,0.351935669,15.23915,12.53532,13.05048,16.62856,614653.8053,655875.395,825592.7324,297123.3391,244116.676,228137.6185,10473412608,7799770624,6305695232,111.5295486,106.0860367,93.22111511,25.98969447,4,32,Modesto,,,37.65057261,-120.9871322,United States,Northern America
87,1,35.16984442,300.4500103,407.7750015,297.9250107,17.77433062,16.49131393,16.54368782,0.348239262,0.380229994,0.347753832,14.9628,12.0796,12.63262,16.20032,52027.42777,55322.98682,69626.91882,67104.15872,55248.94397,51504.16707,1798877824,1334610688,1078960512,23.91204071,21.77935982,17.78745079,28.20335499,4,33,Turlock,,,37.50609806,-120.8528115,United States,Northern America
88,1,364.0469077,227.125,244.3250008,286.9750023,18.12471008,16.65975046,17.23491192,0.312512539,0.336709792,0.28066616,11.5745,10.81154,12.40574,14.26344,236077.2371,203596.4399,256801.5812,231017.5027,139431.9528,143288.4959,8211889152,4512685056,3648261888,84.01544952,75.01795197,27.09290504,19.86187118,4,34,Temecula,,,33.53338129,-117.1527164,United States,Northern America
89,1,75.07087174,131.4500046,189.5250053,152.9000015,17.79794502,16.47277021,16.93942976,0.315038076,0.362634851,0.332860449,17.99015,13.58346,14.94856,20.27864,33076.71235,34126.20585,44435.54368,52276.76193,41521.15067,41240.95142,1637434112,1178164096,952482304,18.82415009,16.87526512,11.95517159,18.69035719,4,35,Hanford,Hanford,,36.33719196,-119.6524538,United States,Northern America
90,1,54.71889612,252.4750023,344.8500061,254.4000053,18.06275463,16.78609085,16.89811039,0.359615519,0.402719605,0.368042317,18.8475,14.45006,15.36606,20.56336,29712.79953,30011.91959,36297.18856,80014.16248,61722.45428,56526.26373,2502431232,1727728000,1396774912,25.81415749,24.35030937,19.34144592,20.63882571,4,36,Merced,,,37.31016576,-120.4772476,United States,Northern America
91,1,13.20209423,397.4000092,533.25,382.7750015,17.08643341,16.03058004,15.95614338,0.420997414,0.419191269,0.406396711,12.5286,10.710562,10.71736,14.12032,39714.41008,41038.68392,50442.94202,72657.0899,56906.70001,52864.40924,2183529984,1582740736,1279560448,18.71538162,18.19745636,13.15328693,19.59241796,4,37,Davis,,,38.55275921,-121.7396426,United States,Northern America
92,1,444.6038554,227.125,244.3250008,286.9750023,18.12471008,16.65975046,17.23491192,0.259491041,0.336732863,0.324431309,9.068875,8.237246,9.80756,11.356138,96724.08941,81706.79514,103430.259,63293.69495,38149.65712,38906.74889,1785082752,967591488,782245568,13.9107666,12.75963306,8.211551666,22.93419589,4,38,Perris,,,33.81242342,-117.212892,United States,Northern America
93,1,14.28090976,346.0750084,473.6000137,331.6500092,17.58591318,16.4575305,16.36444759,0.361563764,0.378117393,0.342137047,12.96905,10.83991,11.22706,14.98752,57034.74704,59925.20141,69792.56209,68280.70651,51818.07512,47112.15402,2166090752,1494112128,1207908992,24.68630028,23.27914047,20.35356331,30.67548901,4,39,Lodi,,,38.12799478,-121.2812501,United States,Northern America
94,1,83.4270983,191.3500004,271.1749992,203.3750038,17.82210588,16.46598363,16.73636484,0.343029794,0.38927413,0.368387922,16.7176,13.01886,13.92384,19.42514,38317.78552,37623.06313,53295.02782,64706.53668,48445.0146,52663.37494,2049015936,1389307520,1123180160,20.61335373,18.56324196,14.88166618,20.44577583,4,41,Madera,,,36.96005066,-120.0665228,United States,Northern America
95,1,497.1472487,227.125,244.3250008,286.9750023,18.12471008,16.65975046,17.23491192,0.27929213,0.31796645,0.267918884,12.941,12.08302,13.7583,15.12128,617275.4847,531359.0489,681785.1024,199002.5924,119936.1325,123305.5168,7223226880,3961219072,3202431744,54.3415184,48.82146454,36.53838348,33.53171827,4,42,Moreno Valley,,,33.92725586,-117.2411723,United States,Northern America
96,1,16.97976205,397.4000092,533.25,382.7750015,17.08643341,16.03058004,15.95614338,0.336331658,0.357942363,0.341216803,11.70085,10.273582,10.45989,13.20316,52496.55885,53892.92853,66064.88412,51528.73746,40600.91507,37975.68875,1659771136,1182367488,955880384,20.14833832,19.13185883,15.59989166,23.55538752,4,43,Woodland,,,38.67605979,-121.7635416,United States,Northern America
97,1,100.6424161,172.7000008,239.9000015,199.1749992,18.45828629,17.1458168,17.68333769,0.315762422,0.359520619,0.321076263,18.65735,14.439,15.95514,20.92724,95428.23732,95896.05702,117116.4403,117576.3356,91141.98073,83688.22887,4141723904,2898196736,2343036416,50.23209381,42.54595947,30.01623154,19.49767983,4,44,Visalia,,,36.32739672,-119.3271873,United States,Northern America
98,1,25.35918009,429.2500191,552.4750061,418.6750031,17.10165453,16.05484128,15.8921752,0.376331851,0.384214016,0.368619329,12.9805,10.927966,11.28912,14.34608,2552082.205,2640958.601,3275254.689,1528104.298,1202165.52,1121542.314,56179085312,40082534400,32404566016,562.8466187,509.4214783,403.7029114,26.78604315,4,45,Sacramento,,,38.60280713,-121.3875759,United States,Northern America
99,1,16.76377295,440.8750153,570.775032,440.7999954,17.20181465,16.11996841,16.0870285,0.346923476,0.387276406,0.361225355,12.34845,10.9986,11.00418,13.6537,43311.99972,44131.81107,55607.1098,58254.33893,45108.95184,42742.53562,1735668992,1211070336,979085120,21.36950111,20.08078003,15.6884594,17.40308806,4,51,Yuba City,,,39.12929186,-121.6315123,United States,Northern America
100,1,72.76424412,136.7500019,92.15000534,147.7250023,20.42760038,19.05321121,19.45300102,0.352889221,0.362146401,0.291265557,13.02065,11.04146,12.25924,12.062556,311330.098,267447.892,339137.6875,350694.5893,211260.9703,216612.4225,12877157376,7052562432,5701616128,207.3380127,200.4289093,163.6862793,25.43000116,4,52,Indio,,,33.75402359,-116.3708061,United States,Northern America
101,1,64.1724704,679.5750122,880.9750061,659.8250275,16.17119193,15.16884351,15.13679934,0.459474909,0.455390524,0.428132257,10.82488,10.106134,10.02879,11.79311,84015.37279,95712.87855,113431.6123,85126.8354,76905.94022,66734.21996,2754275072,2253327360,1821693696,37.02557755,35.06362534,26.92878723,16.1581528,4,54,Chico,,,39.7456477,-121.8371626,United States,Northern America
102,1,47.65835083,60.49999905,29.20000052,67.52500057,24.4643693,23.28955841,23.50281668,0.234351156,0.279193962,0.235889155,15.49735,12.43734,13.46632,13.50268,59892.78233,59647.09495,66058.2896,78222.81824,58662.5578,49137.26067,2377457664,1555497600,1255843200,27.8704052,24.41894531,16.361063,37.62751144,4,56,Yuma,,,32.69350494,-114.6386481,United States,Northern America
103,1,81.6837244,2104.700012,2123.900085,2299.950012,10.25542498,9.508312702,9.637722254,0.474424166,0.484937403,0.458270476,4.35489,4.311956,4.88426,4.814436,100848.2423,61955.44359,51456.19731,68926.38322,59263.93505,53237.85939,1487658112,1064356800,1002320064,30.3996582,29.09147835,24.82159996,18.89256627,4,77,Nanaimo,,,49.19947839,-123.9856086,Canada,Northern America
104,1,140.4468765,208.1000023,188.0250015,192.0250053,12.62342,11.59797764,11.9439435,0.366254321,0.365096831,0.33433317,9.224695,7.509256,8.722686,9.324264,401994.9946,535610.0665,435443.057,126972.0431,85128.20446,76336.87269,3661174016,2136970752,1635446912,52.75180054,47.57525253,37.43465805,22.60138164,4,86,Kennewick,,,46.21405863,-119.1575679,United States,Northern America
105,1,50.13497153,558.6999969,452.4500046,513.1750183,2.990822196,2.507015765,2.076172382,0.421972078,0.425593504,0.186685651,8.12634,4.634226,5.384438,5.862218,93205.58527,101361.9458,123393.8686,123089.786,105438.3729,94950.0643,2444179968,1672329088,1564382080,15.89847183,15.03254795,13.54958057,112.8437485,4,87,Anchorage,,,61.19923392,-149.8314747,United States,Northern America
106,1,55.29267591,2202.675049,2144.275024,2335.525085,10.42813611,9.628575087,9.791603565,0.432550071,0.449793664,0.411292974,6.17011,6.006246,6.203238,6.721172,13814213.26,8193608.294,6650794.509,2015029.579,1563955.117,1307640.434,45717196800,29676681216,27946973184,438.4719849,413.0094299,382.0600281,27.49949786,4,91,Vancouver,Vancouver,,49.2292552,-122.9851417,Canada,Northern America
107,1,1422.728584,331.9250069,254.0500069,257.3000107,9.917217731,9.790323257,9.310012102,0.373485733,0.390244143,0.369166163,8.751135,8.73284,9.344196,9.315598,59599.32338,56708.3606,58708.31369,82907.07022,59912.55452,46246.28864,2829684992,1903309184,1370684800,49.63113022,48.21229553,40.20072556,21.09216929,4,100,Grand Junction,,,39.08509017,-108.5256881,United States,Northern America
108,1,891.2132852,331.3750153,254.8750076,405.6250153,19.17475653,18.69857788,17.9128747,0.256697608,0.260604848,0.192027964,6.457075,6.39202,7.30894,9.948342,79748.46026,84776.4985,79355.87763,89148.42052,75169.3407,49989.29826,2977033728,2169774848,1659438208,43.19462967,42.59453201,41.10463333,32.92916675,4,104,Odessa,,,31.86669163,-102.3673051,United States,Northern America
109,1,858.5947936,345.7250099,300.5500031,411.025013,18.87740421,18.46538115,17.81265831,0.28697175,0.313109292,0.210765136,6.201125,5.87855,6.7832,9.13695,82497.97113,52362.44327,50983.4954,93477.85139,74030.72519,52664.46186,2686851840,1888682496,1444459136,42.85906601,41.11890411,37.29618454,31.41921318,4,106,Midland,,,32.00658236,-102.1149142,United States,Northern America
110,1,38.4625804,550.3000107,428.4500046,390.0250092,23.66337824,23.78815413,23.65003347,0.406535375,0.419636142,0.301162904,9.374725,8.487076,9.879772,14.5322,663050.5269,589800.5992,720797.2674,262087.8916,167940.2914,162803.4461,9100404736,5058804224,3868959744,95.37898254,86.41147614,72.28747559,42.58047695,4,110,McAllen,,,26.21684268,-98.23832951,United States,Northern America
111,1,621.7486582,530.4250107,530.2750092,544.3250275,9.256306648,8.38175869,8.457903862,0.389840466,0.380784313,0.355631925,10.80395,8.367268,9.572372,9.782868,297625.4529,322754.9957,358586.2219,265825.0586,225681.0344,182751.1792,8364261376,6205371392,4749040128,115.422287,112.011528,101.8331985,28.00484281,4,112,Spokane,,,47.6722562,-117.3512222,United States,Northern America
112,1,1440.903611,278.4750099,246.3750038,235.9250069,8.355514765,7.531110287,7.278715014,0.436412533,0.439546524,0.401956563,6.941915,7.351972,8.45,7.663082,34255.57861,32354.1624,30550.27228,71539.69684,51312.74938,36446.03278,1702747136,1081036544,863091968,34.76015091,30.52539825,25.54825783,23.67092232,4,113,Idaho Falls,,,43.48928461,-112.0099064,United States,Northern America
113,1,528.9969731,631.9250183,590.6750183,678.2250137,19.05827856,18.6318202,18.13308382,0.412254406,0.381766238,0.37007666,7.58513,7.280948,8.07388,10.740304,104308.2804,123696.2948,119894.4857,82919.59411,79755.47152,55357.55513,2657803264,2232743424,1707595264,51.61737061,50.70328522,49.1101799,32.18761394,4,119,Abilene,,,32.44159585,-99.74928252,United States,Northern America
114,1,1923.182437,384.3000069,365.7000084,406.5250092,10.36757088,10.13614106,9.605670691,0.375952943,0.378934875,0.356464985,7.739915,7.857632,8.937694,10.177216,550233.1075,556293.5507,604526.1261,396290.1245,305085.6026,245724.6562,13621952512,9699068928,6984867840,159.3249207,147.0595551,119.61026,39.50448841,4,120,Colorado Springs,,,38.86368844,-104.7760317,United States,Northern America
115,1,1673.179747,412.6750145,366.1750031,418.6750031,9.789418697,9.605443001,9.310184956,0.428323192,0.409870431,0.389452936,8.753875,8.72413,9.475478,10.3554,4757230.336,5443310.459,5814504.302,2229499.864,1839649.19,1488885.048,79806464000,61553520640,44328349696,1011.949829,948.6149292,778.9943848,34.95225776,4,127,Denver,,,39.72837393,-104.9803877,United States,Northern America
116,1,226.8443624,944.0500031,824.975029,761.9500122,20.95482636,20.44905519,20.25407124,0.450021877,0.450738249,0.406596331,8.593885,8.038374,10.114128,15.14392,1566979.344,1430190.487,1700475.402,1063620.667,689897.8035,666257.0553,36432879616,20541908992,15710393344,378.5436401,328.1703186,237.4572754,30.64523942,4,128,Austin,,,30.37163753,-97.73513149,United States,Northern America
117,1,1640.223964,466.9750061,383.0250092,450.125,8.074903607,7.920464754,7.581793785,0.459259766,0.453856472,0.419196794,9.152415,8.984944,9.843188,10.4439,82718.04741,83766.28599,93579.60492,91059.98134,80995.90655,64819.43911,3002802688,2467818496,1777220992,37.11702347,35.96496582,34.13935089,26.70408408,4,130,Boulder,,,40.01689251,-105.2539294,United States,Northern America
118,1,1530.884571,466.9750061,383.0250092,450.125,8.074903607,7.920464754,7.581793785,0.424916241,0.418474219,0.440216634,8.37067,8.168166,8.99576,9.94489,110905.0811,123464.0181,135748.2955,81494.56818,72573.9778,58078.95041,2506778112,2066302336,1488065920,40.40180969,38.08089828,30.91750908,27.63348185,4,137,Longmont,,,40.17027699,-105.1125325,United States,Northern America
119,1,267.5840689,876.0999908,768.0250092,827.3000183,20.13298273,19.71907568,19.31226158,0.390951572,0.391955163,0.337478698,7.560895,6.923076,8.787298,13.73338,120096.5561,112634.6421,121070.4837,167100.6445,115277.3332,93891.96073,5755657216,3506402304,2681686272,76.10996246,64.50967407,47.84986496,27.22553344,4,142,Killeen,,,31.1005196,-97.72207064,United States,Northern America
120,1,1529.863372,466.9750061,383.0250092,450.125,8.074903607,7.920464754,7.581793785,0.434620626,0.425832177,0.407069799,7.614055,7.455372,8.1498,8.881494,60515.22611,60120.31282,67254.55051,64752.37323,50749.91363,42471.95994,2208120576,1607372416,1157563648,36.48200989,32.47417831,26.46905899,21.59917991,4,145,Loveland,,,40.41008711,-105.0846459,United States,Northern America
121,1,1528.848062,420.7250061,340.0750046,413.1250153,7.421238303,7.227484584,6.846433759,0.4635389,0.453951732,0.443513872,8.912375,8.861516,9.57934,10.528586,289499.7042,295871.5097,331873.0183,130166.5482,101494.7252,84986.20543,4589308416,3325068544,2394577408,63.40686798,58.67182541,48.09912491,26.56920926,4,148,Fort Collins,,,40.55305944,-105.0727113,United States,Northern America
122,1,1447.609622,399.2000046,345.5750084,404.4250107,10.79988694,10.60442662,10.315516,0.408868345,0.419743634,0.420299442,7.944165,7.756804,8.51486,9.49667,63190.20997,51258.739,55270.99174,112729.3136,69258.71926,58935.77639,3803223552,2163360000,1557962752,51.4822998,45.7022438,38.5009613,31.22630937,4,152,Greeley,,,40.40697815,-104.7192042,United States,Northern America
123,1,980.7538138,372.0250015,319.6750107,413.4000092,8.362539172,7.904649496,7.857111454,0.391378149,0.40029645,0.372416148,7.25339,6.64168,7.884814,7.883456,80878.1578,94295.33156,106416.2172,74175.44915,61574.87561,54814.98272,1648187264,1078698368,891383552,38.05581284,36.31180573,31.07798958,39.73887752,4,154,Billings,,,45.77660028,-108.5582377,United States,Northern America
124,1,166.9227663,1072.275024,993.6750336,1115.399979,18.77769899,18.40530109,18.0502224,0.455580563,0.458029202,0.462751423,10.5202,9.338518,11.60736,16.47414,219875.1472,196459.5036,248179.2387,94627.06473,53767.7149,59849.76278,3182938880,1546129024,1182475520,46.61912918,31.04165268,16.81968117,19.31300779,4,156,Sachse,,,33.00839694,-96.57855787,United States,Northern America
125,1,9.751526071,1518.025024,1437.325043,1537.350006,20.7543416,20.46698952,20.1888237,0.493682591,0.498897767,0.451906801,10.047325,9.096716,11.8752,16.59568,1526210.032,2293981.183,2182625.077,90254.82496,91611.35124,63175.7069,3360018944,2963562496,2266524672,76.91969299,74.08415985,65.59379578,52.99048598,4,159,Beaumont,,,30.07653098,-94.12750487,United States,Northern America
126,1,5.196811902,1466.325043,1412.900024,1509.600037,21.21115732,20.91577387,20.58900738,0.481450646,0.480274485,0.432420138,10.218515,9.327358,12.23258,16.79894,3914212.425,5803202.758,5544978.395,96158.16905,97556.8692,67162.85264,3023097344,2675657728,2046335744,98.73648071,95.02896881,89.79946136,46.67700408,4,161,Port Arthur,,,29.93288725,-93.95506844,United States,Northern America
127,1,912.7832794,384.0000076,305.6250076,373.4000092,6.217587829,5.834002137,6.132543325,0.372791,0.368241972,0.353910003,6.552695,6.271584,7.372796,7.443772,53968.42179,30286.2087,24162.9616,52686.6911,40105.22506,32804.98404,1505759872,980694208,766300224,24.38391113,22.4140873,19.50836182,35.95226589,4,165,Lethbridge,,,49.69843105,-112.8093882,Canada,Northern America
128,1,376.7277398,932.6499939,882.8500061,881.6250153,17.07453918,16.69793081,16.23154378,0.461538982,0.455617282,0.414643077,9.286485,8.787696,10.365186,12.92282,1291515.322,1409099.482,1732000.012,616999.469,536907.2917,486822.605,18862501888,13208886272,10902902784,381.6270752,351.9694519,310.9497375,39.1351294,4,166,Oklahoma City,,,35.46309323,-97.52442303,United States,Northern America
129,1,1063.477908,509.5500107,461.5000076,519.3500061,3.147619367,2.654306948,3.092923164,0.397779309,0.39510891,0.391727491,6.189555,5.99424,6.843482,6.539494,377107.8254,196912.5646,150818.545,97165.35646,67281.7612,52014.53657,2949342464,1754027392,1370571520,20.85472679,15.71123123,8.90325737,37.84261566,4,174,Midnapore,,,50.90074651,-114.0703216,Canada,Northern America
130,1,1094.727465,446.4500046,415.7250061,470.7750168,3.55001694,3.099735796,3.547346115,0.380766119,0.383861424,0.359297198,6.23996,6.074878,6.93412,6.57134,8137774.489,4288512.917,3301332.127,1027226.576,723755.7978,565763.0932,31124336640,18753882112,14654017536,303.4830627,270.0675659,230.6197815,51.23996486,4,175,Calgary,,,51.039687,-114.0703599,Canada,Northern America
131,1,114.0870971,1323.575043,1287.125031,1370.850037,18.53132534,18.34868813,18.02501535,0.523559704,0.52921755,0.497154054,8.99234,8.270842,10.619054,14.43064,47979.8317,52649.97199,49261.01357,67199.03984,59749.85303,41594.71499,1927899520,1492102400,1141155712,49.08626938,46.38231277,41.60318375,28.41241752,4,177,Longview,,,32.51520838,-94.76311932,United States,Northern America
132,1,1101.648573,446.4500046,415.7250061,470.7750168,3.55001694,3.099735796,3.547346115,0.350967349,0.364177803,0.44214078,5.308825,5.05465,5.819252,5.47615,247498.1958,129669.3928,99695.14885,58842.61755,41205.1145,31493.3161,1381678208,833921984,651614528,10.79608345,6.019016266,2.1398561,34.52768347,4,178,Aurora Business Park,,,51.16094154,-114.0761285,Canada,Northern America
133,1,8.68205555,1497.975006,1381.625061,1533.575073,20.69899321,20.40047073,20.0379405,0.508808976,0.50040135,0.458941343,11.2018,9.864182,12.86264,17.7959,300681.4185,438946.2159,433101.4322,65139.63467,61550.90789,62128.87219,2020886400,1387119104,1128509184,42.39296722,39.21063995,27.07352257,43.75209573,4,179,Lake Charles,,,30.20066241,-93.21274836,United States,Northern America
134,1,411.8600806,846.7000122,883.8000183,685.1250153,14.66271544,14.54731274,14.24783826,0.513992477,0.483673199,0.432127447,9.29885,8.908942,10.255636,12.82734,86198.38868,95317.87972,121285.3769,59347.93365,52559.18289,49280.16944,1891097600,1405455488,1124588928,32.15007782,28.13700867,17.77327919,24.39212683,4,193,Meadowview,,,37.70356033,-97.45223834,United States,Northern America
135,1,407.5847928,846.7000122,883.8000183,685.1250153,14.66271544,14.54731274,14.24783826,0.471421252,0.452446022,0.39235833,9.254625,8.977016,10.425016,12.96764,750142.7148,836726.7458,1064073.454,272839.4884,240554.3091,226212.5531,9113311232,6748003840,5399483392,153.7166595,148.0253296,135.8362427,30.88902977,4,194,Wichita,,,37.68333134,-97.30966899,United States,Northern America
136,1,216.5924429,1078.375015,1090.000015,1075.950027,16.68291688,16.46051741,16.02897048,0.470490326,0.456484869,0.413759248,10.4364,10.120392,11.94778,14.9261,974616.5555,1205610.99,1384543.939,442252.6908,405555.9666,368771.7675,13963030528,10242805760,8454647296,284.9176636,266.4926147,236.1178284,37.36394427,4,196,Tulsa,,,36.09653097,-95.90641721,United States,Northern America
137,1,13.86516381,1592.375031,1402.850006,1657.025024,20.76537371,20.47688055,20.10784912,0.489056888,0.489835195,0.455574771,11.2056,10.58968,13.60934,18.03242,106762.1589,109685.4497,153522.0895,97041.3425,78425.80094,83802.91362,3380353024,2005362944,1631489664,51.07809448,46.08454132,37.5618248,58.75964838,4,197,Lafayette,,,30.19901336,-92.02818627,United States,Northern America
138,1,878.2841343,444.4499969,406.2000046,511.3250046,3.212542236,2.815006554,3.29041034,0.427311262,0.426710911,0.404838972,6.61134,6.704768,7.016434,6.680038,144923.5953,84497.68049,68705.37592,92027.71418,74684.89893,63716.51804,2373469696,1641875072,1282936832,38.38644028,33.35195541,25.65773201,65.86160372,4,200,Red Deer,,,52.2741154,-113.805592,Canada,Northern America
139,1,17.01334217,1643.800018,1429.750031,1738.600037,20.75579023,20.54791307,20.25940323,0.502203403,0.487122902,0.46201764,10.63165,10.246752,13.25904,18.20844,3928772.308,5736147.479,5677867.945,270758.8464,249805.0968,251758.7497,9268129792,6292306944,5119190016,149.958786,135.7949677,116.6502609,54.24954413,4,208,Baton Rouge,,,30.43326952,-91.10127215,United States,Northern America
140,1,3.259684892,1645.025024,1441.050018,1742.150055,21.23933458,21.02321577,20.68001986,0.432374335,0.42017432,0.372795311,8.0354,8.08972,10.062586,14.03922,1878259.305,2922547.235,3237407.807,680993.5612,934629.1297,857957.7619,23709323264,23608504320,19207016448,357.408783,349.5267639,327.3216248,55.68659051,4,211,New Orleans,,,29.96009972,-90.10226475,United States,Northern America
141,1,407.6845357,1167.575043,1146.800018,1163.175003,15.47655344,15.27136922,14.87956548,0.516171448,0.525679579,0.506841617,10.14145,9.484006,11.36762,14.90462,72706.20814,65660.49301,90607.96298,61738.2986,42486.05502,46462.83091,1494612096,819838144,660669376,33.76003265,30.15514565,22.93665695,26.9821349,4,212,Springdale,,,36.18295125,-94.14653663,United States,Northern America
142,1,406.2340028,1167.575043,1146.800018,1163.175003,15.47655344,15.27136922,14.87956548,0.519729701,0.525692838,0.521200346,10.40985,9.746622,11.81008,15.38802,113814.8306,92917.19603,140104.0466,56460.08328,33057.69066,40713.35729,1530013312,709947264,572113600,33.6754036,30.17904472,23.39931679,28.59618815,4,213,Rogers,,,36.3371122,-94.15663525,United States,Northern America
143,1,674.9963773,442,360.9750137,472.8500137,3.431097925,3.059403062,3.466862559,0.387360988,0.407012999,0.39789709,7.124635,8.002766,7.951952,8.089848,6047094.476,4919977.254,4259876.737,975000.7097,709470.6294,566377.2039,28128221184,17464631296,13646608384,333.3640442,292.6842651,246.6086578,73.42202038,4,214,Edmonton,,,53.54200131,-113.4855766,Canada,Northern America
144,1,294.6555472,889.4000397,811.9250183,730.5000076,13.21520185,13.14231849,13.09643006,0.51264374,0.463331183,0.431296132,10.052935,9.634938,10.90632,14.15682,95967.13485,113015.456,138140.038,94598.08414,89619.66695,79394.28735,2727936768,2166627584,1733649024,54.93510437,53.89212799,50.77033234,33.66418065,4,216,Topeka,,,39.03107994,-95.70518194,United States,Northern America
145,1,16.67055457,1794.200012,1472.125,1729.950043,20.3120265,20.04677486,19.99606323,0.467514529,0.443999293,0.400560494,10.41785,10.322632,13.17894,17.44976,363873.5296,511744.2303,520533.2759,118578.6789,115131.7763,99653.67154,4072112128,3266821376,2677753344,71.29800415,68.72794342,62.57801056,38.81097428,4,217,Mobile,,,30.69237653,-88.0936849,United States,Northern America
146,1,22.07988754,1627.275055,1267.475021,1520.500031,20.61421919,20.21871042,20.23448277,0.49807798,0.476899409,0.446007043,9.295855,9.124224,11.71346,15.82438,293515.9505,363059.5078,373577.229,196818.9244,194786.379,146885.0209,7804948992,6737773056,5688631808,155.2352448,145.380722,131.2622528,20.25550295,4,230,Pensacola,,,30.43935193,-87.229301,United States,Northern America
147,1,533.4069377,471.6500092,442.7750092,330.7249985,5.633733869,5.769036412,5.97829628,0.438934152,0.420805427,0.365133843,7.52493,6.643044,7.440536,8.764356,65032.41713,85085.98944,93153.49964,52468.21878,42031.67592,44825.15028,1491542528,827254784,647804992,28.45826721,25.19324112,21.76786041,51.13282952,4,233,Bismarck,,,46.81803771,-100.7805233,United States,Northern America
148,1,199.0475987,1504.625,1402.425018,1464.900024,17.49764442,17.16572952,17.06690979,0.494568432,0.475393587,0.42369119,10.3269,10.625714,13.8868,19.38254,307558.72,375936.1485,435904.3261,196387.767,201188.4423,167442.0944,6184143360,5190127104,4254250240,152.8946075,148.7955017,137.5807495,42.97868054,4,237,Birmingham,,,33.50902518,-86.82365065,United States,Northern America
149,1,159.021037,1070.175034,915.9750061,928.1749878,14.31618166,14.19022799,14.04787922,0.517504486,0.505761382,0.450198824,11.6142,10.355296,12.1899,17.64392,3135026.724,3976910.384,4623804.505,1100883.938,1171841.557,949852.7734,36125831168,33650546688,26845231104,654.2601318,637.1502686,618.8909302,38.55406826,4,238,St. Louis,,,38.64866335,-90.29516847,United States,Northern America
150,1,165.3110729,1102.975006,980.5250244,958.5250092,14.03151345,13.97169685,13.85541487,0.578899541,0.558975107,0.496895205,11.2596,10.034848,11.88398,17.60976,172005.4328,237055.8206,247282.7632,58965.57457,55350.04912,46752.35569,2043160832,1714372992,1382050816,34.25305939,33.03830338,30.99059868,37.10126043,4,242,Belleville,,,38.52952242,-89.99408903,United States,Northern America
151,1,44.78999001,1750.550018,1386.524994,1531.000031,20.80668497,20.17092943,20.31932878,0.48238579,0.47194631,0.44481879,9.91051,9.731308,12.63238,17.93778,56731.44854,59648.91893,65786.09592,70101.07556,57800.41037,47945.17519,2435344384,1765901312,1490932608,14.56813335,13.23807144,11.6695652,46.94867518,4,244,Tallahassee,,,30.44089044,-84.29721635,United States,Northern America
152,1,7.279894886,1572.975006,1204.700012,1138.949997,23.77506542,23.14864922,23.33696222,0.507474442,0.485832799,0.453291727,8.59582,8.498208,11.324792,15.56358,796130.0367,813088.9054,873797.889,606534.1841,476010.731,384651.1725,22692292608,15631392768,13197415424,507.3479614,490.9063416,429.5340271,14.76275117,4,251,Bradenton,,,27.29726911,-82.49541578,United States,Northern America
153,1,11.57526467,1652.500031,1235.700012,1230.775024,23.50172043,22.85376883,23.04238939,0.486132762,0.460661596,0.406574727,9.400435,9.243166,12.25302,18.09332,3180430.47,3517252.103,3732072.245,1996766.554,1717117.629,1306913.326,76110553088,57543340032,48583258112,1175.322021,1152.677734,1077.760986,26.31225555,4,252,Tampa,,,27.80797724,-82.70346723,United States,Northern America
154,1,202.4088324,1575.950073,1441.050018,1606.675018,16.32188892,16.11956549,15.95290709,0.521521752,0.504037945,0.442874582,10.86525,11.39438,14.15508,19.48592,93099.4698,93541.96376,115344.7656,86467.06209,66237.35603,63402.29658,2498489088,1578657152,1293996800,59.6740036,57.94055176,54.71438599,39.11075207,4,253,Huntsville,,,34.72606498,-86.60999497,United States,Northern America
155,1,54.72391734,1545.750061,1185.400024,1214.300018,23.27126312,22.59163952,22.87148762,0.497403905,0.465746802,0.421917483,10.13577,9.803514,12.7706,18.65882,121761.5756,119052.0086,126901.7633,96592.23384,70937.62819,56759.39491,3210687488,2058108160,1737639936,40.81713867,37.90241623,35.18603897,32.87828929,4,257,Lakeland,,,28.02654586,-81.94631139,United States,Northern America
156,1,186.6036472,1538.000031,1318.200012,1466.150024,15.30128336,15.1833787,14.93469238,0.54817257,0.536974898,0.509534934,10.44165,11.07514,13.63324,18.74768,65930.27513,54589.25317,76649.79121,78454.49407,46010.28035,52947.68253,2105586048,1087648128,853149760,37.55286026,31.83247566,22.71598053,35.53969749,4,258,Murfreesboro,,,35.84681315,-86.38592526,United States,Northern America
157,1,197.1775123,952.6750183,890.6500092,798.2500153,10.30153298,10.58621931,10.19542694,0.539588725,0.509105087,0.470300251,12.02875,11.05544,12.3904,16.38442,300237.383,364926.9749,447122.6062,226544.4095,225659.2655,203141.8751,7308424704,6191401984,4981102592,159.3901062,144.3804626,127.1518402,31.92987771,4,264,Davenport,,,41.5177227,-90.52810113,United States,Northern America
158,1,118.6280613,1286.150024,1204.850006,1185.475006,14.4369247,14.36723924,14.02167511,0.494919887,0.481307613,0.422582893,12.4383,11.98438,14.47062,19.95014,103612.2202,121480.2602,144712.6374,114771.338,108756.304,94182.33231,3143664384,2778478592,2230792704,72.06118774,68.18967438,63.09474564,37.87078704,4,268,Evansville,,,37.981265,-87.52636176,United States,Northern America
159,1,7.145522824,1460.525024,1334.775055,1111.550018,25.58113003,24.97861147,25.21404123,0.493884372,0.490184233,0.465547802,7.05564,6.922258,8.91526,11.745656,132356.7778,147177.3945,159851.2619,129554.6062,112964.7686,87922.04696,3624910336,2768937984,2337785088,48.42159271,47.02055359,45.39585876,35.94437905,4,271,Homestead,,,25.48738057,-80.44214857,United States,Northern America
160,1,187.1896683,1011.425034,857.9000244,877.25,11.0293982,11.24449039,10.92612934,0.534713563,0.505138766,0.45425754,11.8434,11.336968,12.7643,18.19648,121337.0577,146163.2782,174479.2972,117438.3463,116103.971,100932.3944,3956335104,3504565248,2825222912,83.50699615,78.95144653,74.65991974,37.39920094,4,273,Peoria,,,40.71483657,-89.60797997,United States,Northern America
161,1,318.9363762,792.5250244,751.8500214,686.6750183,6.493273497,6.481963038,6.05296576,0.516468261,0.494836075,0.45553406,10.157955,8.766362,10.76703,12.52574,67854.93301,71325.40337,87142.13175,85328.00621,71684.98156,64823.51352,2640651520,1945571712,1485838080,54.10507584,49.27877045,39.44122314,29.36242332,4,274,Saint Cloud,,,45.57515721,-94.1946607,United States,Northern America
162,1,250.949516,1060.600037,928.1250153,925.9000244,11.59443951,11.70113492,11.32429266,0.489745253,0.48029175,0.431755428,11.8724,11.070062,12.67302,18.81676,68476.3446,73927.73761,98455.04587,117343.5585,99462.20247,100075.3283,3722436352,2839461888,2289047552,57.90507126,53.43289948,39.89570618,38.57013512,4,280,Bloomington,,,40.4934032,-88.97138438,United States,Northern America
163,1,329.298221,1610.100037,1253.074982,1458.625031,16.03670192,15.77290368,15.88570619,0.54307509,0.521748134,0.534772993,10.22895,10.623878,13.12512,19.61118,683838.1657,708888.9804,783156.2176,179837.6951,147830.0501,122464.5993,5359358976,4157132032,3231210496,92.60155487,83.86447144,35.62627029,27.86831665,4,281,Roswell,,,34.05288817,-84.25600761,United States,Northern America
164,1,236.1491398,903.8250122,897.3250275,792.1750107,8.857549787,9.182656527,8.630706072,0.539266932,0.510844041,0.478083559,11.512,10.67162,12.29888,16.02556,164730.9652,240495.5391,189908.7175,53853.44525,51097.42059,47199.17974,1815852032,1436271232,1146926976,33.26448822,30.99333191,27.49421501,27.39614923,4,282,Dubuque,,,42.50416997,-90.69490585,United States,Northern America
165,1,16.23037857,1498.800018,1215.675003,1274.950027,23.00020027,22.2994194,22.5880785,0.510784218,0.487696887,0.46890731,8.981435,9.412076,11.9562,17.55468,158087.2442,167102.06,186798.5298,71477.23981,58282.13416,49523.24295,2500736256,1786185216,1508057600,40.71409988,32.71110535,22.54679489,25.58496495,4,284,Sanford,,,28.7930307,-81.30157244,United States,Northern America
166,1,21.06363556,1498.800018,1215.675003,1274.950027,23.00020027,22.2994194,22.5880785,0.530140693,0.505164064,0.475566935,8.36412,8.906752,11.497904,16.61824,122026.7667,132841.1575,143179.2346,66132.41221,56767.94936,45450.12191,2017181056,1527726592,1289843840,39.38314438,35.50825882,27.61004257,11.85599152,4,287,Deltona,,,28.90290397,-81.26551487,United States,Northern America
167,1,260.1802113,917.6249847,901.8500061,796.6750183,8.306447506,8.592370868,8.144731522,0.551736129,0.533124946,0.479017229,11.289,10.414296,11.80862,16.09538,30378.11052,35350.81975,42930.03068,56600.6729,53344.7017,48398.42502,1400689408,1156069888,901272448,43.80766678,41.12360764,35.47631836,23.79049388,4,293,Janesville,,,42.68997388,-89.00714695,United States,Northern America
168,1,230.5216273,997.5500488,916.1000061,899.5750275,9.971983194,10.17637277,9.755240202,0.534752408,0.520170108,0.474601782,12.24955,11.69894,12.8403,17.8356,205574.55,201739.3452,278846.1652,82826.90169,58935.0793,64593.32647,2791064576,1767053568,1424519680,47.78393555,43.86850357,28.17535019,34.12007259,4,294,Batavia,,,41.88154006,-88.31066266,United States,Northern America
169,1,196.3497701,1111.025024,1009.350006,1018.875015,11.39722514,11.72393346,11.60268617,0.493745658,0.466405403,0.437657892,14.362,13.07832,15.10316,20.60712,73973.63589,77382.68587,95840.66579,116137.3437,95755.97918,91416.73381,3249214464,2483897856,1994278784,54.11274338,50.50963211,38.8977356,35.14420564,4,300,Lafayette,,,40.41600971,-86.87692205,United States,Northern America
170,1,256.1223755,1026.725006,940.2500305,970.8500366,10.69221854,10.69736958,10.57155752,0.514367151,0.47082247,0.428473278,13.06525,12.61064,15.61564,18.55958,1937772.219,2142768.813,2942818.265,1138151.475,995416.8908,1021709.682,34307518464,27450658816,22521018368,553.0723267,512.616394,364.752655,39.25239438,4,301,Columbus,,,40.0147868,-82.99973942,United States,Northern America
171,1,267.5166512,1220.400024,950.2000275,1174.725052,15.03161263,14.64086223,14.85567594,0.555184886,0.509437482,0.462029805,8.947015,10.08695,13.01916,17.48134,107651.3208,114151.3883,115348.8291,88908.1026,73887.59816,57535.99326,2658832384,2019972480,1572050688,50.40557861,48.95675659,41.78915787,39.2864038,4,305,Winston-Salem,,,36.09411387,-80.26062166,United States,Northern America
172,1,256.2593358,1213,971.5,1151.675049,15.31133246,14.89758635,15.12003613,0.540303161,0.505843847,0.47293467,8.689865,10.001884,12.88912,17.64756,252008.9198,264656.2712,290159.7841,167975.0284,136511.0413,111710.9544,5206373376,3895897600,3031996672,102.608696,97.23796082,79.5364151,44.21081158,4,314,Greensboro,,,36.06996335,-79.84098304,United States,Northern America
173,1,263.430942,859.8250122,838.9750214,848.3250275,9.144301772,9.278209925,8.978127599,0.554303074,0.518864156,0.480506997,10.902905,10.371536,12.72792,16.1193,209869.128,255496.9207,320421.4341,184746.373,185504.0046,168937.4278,5217074688,5097641984,4099647488,94.73447418,92.51737976,87.10778046,41.8736682,4,321,Lansing,,,42.71770037,-84.54630774,United States,Northern America
174,1,58.60596862,1320.800018,1131.050018,1185.575012,16.65567017,16.19073701,16.33233118,0.547435122,0.516529877,0.482505919,9.5021,10.85596,13.88302,19.1966,180244.8509,210953.8607,217836.803,115034.6952,107905.9881,80422.70144,3819970048,3316700928,2581233664,76.07680511,69.64209747,55.20830917,34.23268333,4,324,Fayetteville,,,35.04444052,-78.94307093,United States,Northern America
175,1,186.9076922,794.0500183,801.4250183,825.4750061,8.921533942,9.072769642,8.804896832,0.540677597,0.507304383,0.456588586,10.759085,10.296146,12.33596,15.45632,101381.3322,133190.2155,166795.1,88296.17413,96409.01374,87018.7702,2335103488,2474798336,1990293120,66.19153595,63.37975311,59.12265778,31.41646941,4,326,Saginaw,,,43.43491681,-83.96580153,United States,Northern America
176,1,187.9954452,972.8750305,921.1750336,889.1750183,10.23099685,10.28862906,10.14153934,0.491487395,0.459709372,0.427711461,14.85565,14.56864,17.9124,22.06426,71440.83664,82677.30745,107728.2632,64437.53615,60099.91361,57607.16206,1625785984,1389697920,1140132480,37.14334488,36.27007675,33.96219635,24.91019717,4,329,Lorain,,,41.44589553,-82.17726646,United States,Northern America
177,1,331.7102445,1002.574997,910.9000244,963.6500397,10.79170465,10.62368798,10.76049089,0.534539969,0.5056178,0.455101922,11.83285,11.59682,15.03094,18.09338,352568.4766,475670.838,535767.6564,172935.0083,177816.7505,166987.7759,5110779904,4740950016,3889558784,120.1896286,111.7787018,81.47437286,30.09563627,4,332,Canton,,,40.82606344,-81.42098699,United States,Northern America
178,1,246.1646423,978.5749969,929.4250183,924.0250244,10.2801578,10.30491352,10.21175623,0.508762778,0.490657704,0.460734079,12.686,12.60308,15.95676,19.54878,2029759.593,2740470.126,3497250.175,1188874.549,1352855.464,1224596.739,36591910912,38196252672,31336888320,659.6998901,653.6108398,608.3662109,37.20008981,4,335,Cleveland,,,41.47505094,-81.64622338,United States,Northern America
179,1,183.7585269,883.8250275,883.8499908,858.0000153,9.287776351,9.361394167,9.145901203,0.460308935,0.444718294,0.415618267,12.06175,11.60442,13.42288,17.43562,1117629.443,1277798.967,1199169.239,95048.56929,99888.48265,102821.1159,2593021184,2543901952,2111344640,61.77494812,60.84264374,56.39934921,39.29963639,4,337,Sarnia,,,42.9788707,-82.40954587,Canada,Northern America
180,1,310.096225,979.5749969,891.5249939,909.9250183,10.18829131,10.137676,10.17988586,0.5515309,0.52720528,0.487609852,11.72345,11.73284,14.97552,18.2767,152137.6467,205969.8975,258119.6756,117697.5464,133912.134,119455.4864,3228264704,3355290112,2752739840,85.43409729,83.86376953,79.21355438,31.31046345,4,342,Youngstown,,,41.0896084,-80.6664494,United States,Northern America
181,1,307.0994747,1131.600006,997.1750031,1088.5,11.11226916,10.89372683,11.16158843,0.541747757,0.524119761,0.444330176,11.7346,11.36102,14.4914,17.80098,1477341.991,1916129.799,2344554.723,709250.094,772680.6855,671012.2092,24754395136,22995335168,18744211456,301.7696228,286.5583191,256.1872559,24.35744733,4,344,Pittsburgh,,,40.41596736,-79.97203034,United States,Northern America
182,1,246.0804233,1023.925018,924.5250244,965.8250275,10.50594521,10.35217333,10.53756833,0.484680218,0.469618478,0.417380307,12.4277,11.96494,15.2014,18.4268,47420.33704,64715.83064,78443.16691,55815.09656,62037.55612,54869.60953,1633172992,1528413440,1245857664,39.01716232,37.16091919,35.00004196,15.82497293,4,345,Center Township,,,40.70159673,-80.28930264,United States,Northern America
183,1,56.54559204,1145.225037,1037.600021,1092.150024,14.68632388,14.36978698,14.45963526,0.482381644,0.472373071,0.420262466,10.192395,9.678572,13.13,16.79554,370885.117,420660.1449,459051.2979,244212.0311,218969.4788,173028.6382,10224025600,7597391872,6161760256,96.87662506,92.16454315,84.93820953,42.25926399,4,353,Richmond,,,37.56452379,-77.4744881,United States,Northern America
184,1,232.2394609,980.7000122,914.8750305,933.0749969,9.63749671,9.600218534,9.443849087,0.519859593,0.495415436,0.465908037,11.4625,11.31428,14.52514,17.8089,120020.4137,149008.4826,189828.8649,144602.835,147169.7349,136051.0668,4542803456,3938580736,3210461952,73.32880402,72.32681274,66.80345917,30.34495538,4,362,Erie,,,42.10918134,-80.08950989,United States,Northern America
185,1,6.299714303,1166.925049,1151.050018,1202.500015,16.09788299,15.67935348,15.90943766,0.506635733,0.484272412,0.445181136,9.49669,9.964072,13.06454,17.55418,1629898.796,1954169.563,2114081.147,832250.0823,801460.6558,625594.3876,33734617088,26744434688,21690707968,419.4689331,399.3005371,363.4884033,36.79759483,4,363,Virginia Beach,,,36.84947257,-76.22371144,United States,Northern America
186,1,9.289954025,1249.175018,1215.075012,1240.425018,15.20202112,14.80158544,15.11277103,0.533799633,0.510073828,0.455601954,10.152915,10.41906,13.82706,18.21596,727745.2531,928000.2436,1068782.992,312847.9807,326306.0028,264619.7446,12559373312,10711815168,8687675392,170.0102386,160.6069489,141.5509491,31.32193558,4,365,Newport News,,,37.06300771,-76.43003236,United States,Northern America
187,1,82.24570375,1093.100021,977.3750305,1034.925049,14.69545531,14.39945531,14.64114547,0.533266804,0.513594413,0.464182507,10.74729,10.86924,14.33282,17.88728,9078421.703,10029269.95,12247948.06,3368613.481,2926241.226,2643439.752,1.49E+11,1.01E+11,82413707264,933.114624,843.9207764,688.5009766,39.34646644,4,370,Washington D.C.,,,38.9228404,-77.14196317,United States,Northern America
188,1,68.13883084,1093.100021,977.3750305,1034.925049,14.69545531,14.39945531,14.64114547,0.563499661,0.538994768,0.474527107,10.85419,10.78258,14.43984,17.75576,478206.1873,411688.7178,507549.5271,195201.0748,117489.9115,114730.4778,6972887552,3408558592,2764465408,47.26161194,42.7646904,29.13061714,22.87882786,4,371,Dale City,,,38.6522132,-77.3140471,United States,Northern America
189,1,92.42780434,1144.150024,1019.400009,1043.450027,13.13925672,12.85097337,13.20831347,0.574722054,0.53892415,0.500357899,10.66147,10.800674,14.2386,17.58334,200743.8385,138982.4252,215522.7718,76894.89133,30902.1584,45031.45098,2368263680,794621632,644467200,25.81177521,19.42977142,2.564201117,22.77963501,4,373,Ashburn,,,39.03309098,-77.49312181,United States,Northern America
190,1,97.44237214,1107.800034,997.8500061,985.1750183,13.3135097,12.97623634,13.26183534,0.560722546,0.538848906,0.495620858,10.56733,10.7182,13.8092,17.19486,100160.4544,69062.65694,106797.3447,60163.44858,24720.12399,36562.71353,2109772416,706029248,573955136,18.81101799,14.87267876,5.949213028,29.53074679,4,374,Leesburg,,,39.10104517,-77.53277101,United States,Northern America
191,1,157.1008178,838.7250061,756.5000153,779.8750153,7.692582607,7.757940173,7.438784599,0.45165131,0.432782319,0.415075013,9.7813,9.286934,11.516264,13.80706,31207550.09,19375509.84,16076593.19,6036145.783,4853173.796,4189726.306,1.67E+11,1.24E+11,1.05E+11,1471.817383,1347.64856,1202.35498,47.28754469,4,375,Toronto,Toronto,,43.65246768,-79.53381024,Canada,Northern America
192,1,107.3922305,1153.875015,1035.425018,1071.675003,13.17422318,12.89537811,13.35398746,0.547956846,0.521863214,0.495372654,11.1444,11.39182,14.76088,18.7354,554225.4047,594919.7972,794300.3752,105619.3399,86082.65821,90635.21951,4895043584,3271215616,2702460416,37.42044449,33.34615707,22.12699699,27.40551269,4,377,Columbia,,,39.20059963,-76.82144827,United States,Northern America
193,1,358.2595254,1061.324997,930.3000031,926.8750305,10.03501463,9.858785391,9.964262962,0.520755055,0.506920474,0.496563419,9.712065,9.745504,12.1316,15.3782,12711.08095,13465.11746,17744.63301,55234.85016,46787.96765,46356.60352,1486503808,1063855360,867181952,8.282056808,7.441854954,6.549959183,30.81867043,4,378,State College,,,40.79840353,-77.87303276,United States,Northern America
194,1,69.81308536,1153.875015,1035.425018,1071.675003,13.17422318,12.89537811,13.35398746,0.466869041,0.446268377,0.399680018,11.43635,11.72638,15.00314,19.01532,4409660.877,5393779.759,5967300.099,1360858.298,1351485.8,1068543.899,58137075712,47141634048,38945251328,442.2944031,426.6395569,383.4703979,42.62515228,4,380,Baltimore,,,39.31155264,-76.61148208,United States,Northern America
195,1,202.508033,838.7250061,756.5000153,779.8750153,7.692582607,7.757940173,7.438784599,0.418760457,0.454840008,0.446484618,10.23424,9.580638,11.80404,14.2256,216608.2998,108670.7058,81919.21403,83879.53263,56011.47981,43270.60657,1849265536,1163481728,982964224,22.86463165,11.53207016,8.576533318,48.37157748,4,381,Milton,,,43.51638277,-79.87111162,Canada,Northern America
196,1,111.6706998,882.3750305,790.5,797.2000122,9.705515146,9.643950462,9.445302486,0.510936155,0.488953669,0.45483876,10.8983,10.186152,13.0728,15.38534,483300.5116,337016.5164,306921.5118,143040.4558,141027.1749,138363.918,3659152640,3328334080,2811933184,61.23420715,60.04085922,57.52845764,29.32495843,4,385,St. Catharines,,,43.16670466,-79.23375285,Canada,Northern America
197,1,127.4380814,1157.125031,1019.725006,1009.425034,11.34611154,11.16826558,11.32028604,0.537487465,0.48594988,0.461296666,11.5652,11.16494,13.8546,17.76008,374602.0626,424671.3184,556488.9039,236655.5345,213927.1148,207945.5115,8124307968,6272929280,5113264128,142.5530243,133.4493713,115.8167496,24.8346964,4,386,Harrisburg,,,40.26000553,-76.89204879,United States,Northern America
198,1,141.6613007,1142.77504,1049.850037,1013.450012,12.0978756,11.86114836,12.20015001,0.469801065,0.451833895,0.416209227,11.77195,11.53952,14.60744,18.3707,113929.5007,121327.3841,162703.4762,104466.9162,87260.27806,88711.94969,3981363968,2836552448,2312164352,50.21681595,47.66421509,40.78775787,34.96835538,4,387,York,,,39.96411176,-76.7212158,United States,Northern America
199,1,179.990831,882.3750305,790.5,797.2000122,9.705515146,9.643950462,9.445302486,0.50135925,0.477862254,0.418129386,9.972395,9.3925,12.07886,14.53486,312138.9136,270202.1724,284017.6926,125817.6707,126809.9362,119573.7435,4235677696,3658039296,3137175552,70.18645477,67.60283661,64.24793243,34.0321688,4,389,Niagara Falls,,,43.10027987,-79.05378983,United States,Northern America
200,1,190.9847795,1072.425003,1005.075043,1021.325012,9.090383291,9.018236637,8.794063807,0.474415575,0.461844602,0.386429228,10.30295,9.591696,12.28924,14.9821,1116687.738,1424129.825,1754153.571,615835.9218,656160.3012,579114.5673,24982378496,21868118016,18915606528,296.0652161,291.6131592,277.5352173,38.45772455,4,390,Buffalo,,,42.9237412,-78.81130882,United States,Northern America
201,1,268.2661735,917.1000214,832.1500244,863.2750244,7.236171603,7.311643243,6.942356348,0.520536868,0.506812853,0.48216521,8.33006,8.197248,10.072486,12.38822,795212.8506,391433.4579,291404.2669,142042.2473,93390.34715,69447.84916,3477742080,2103080448,1776780928,42.75392914,36.99489594,32.06655884,37.65791053,4,393,Newmarket,,,44.03267134,-79.46124711,Canada,Northern America
202,1,261.9826142,891.2000427,804.3000183,845.0250092,7.075652957,7.206678033,6.82875526,0.482494021,0.445285886,0.443015535,7.38704,7.510018,9.213758,11.011314,222086.5336,137750.0593,116010.1443,131835.3221,113467.0955,100756.2647,3076752384,2430580480,2053468672,40.46540833,36.5438385,25.37196541,44.54950051,4,394,Barrie,,,44.3723293,-79.68428736,Canada,Northern America
203,1,106.5395286,1198.900024,1057.650009,1064.725006,11.4001987,11.21644497,11.45287275,0.519783995,0.481187476,0.444753941,11.9067,11.43224,14.47896,18.3159,130857.2802,144218.0837,194007.4422,116932.4683,102538.6122,103209.395,3582358784,2677320960,2182368256,48.21365738,42.31614304,34.72730637,29.51716079,4,395,Lancaster,,,40.05279955,-76.30428985,United States,Northern America
204,1,140.7869219,861.0500031,787.8500061,771.5500183,9.697564363,9.586535454,9.436307907,0.553536349,0.524802464,0.486511408,9.432425,9.038584,11.208508,13.84244,557761.159,682563.4884,873328.9607,388315.2506,387597.7294,358787.663,15199115264,12465323008,10782316544,179.1115417,171.9392548,163.5163422,30.76750062,4,400,Rochester,,,43.17237234,-77.63023346,United States,Northern America
205,1,51.46787504,1262.700043,1117.350052,1165.375046,12.00590181,11.68126774,11.92919779,0.48731086,0.448464322,0.4314959,11.3998,11.5973,14.81338,18.45754,281219.8732,326383.2733,429483.3385,91964.11656,84586.42901,84893.0408,3005208064,2363893760,1926883968,41.71721268,40.41339493,33.2424469,33.60720521,4,401,Norristown,,,40.10071787,-75.34537593,United States,Northern America
206,1,118.1492858,1260.500061,1089.775055,1170.825012,10.79755092,10.47372723,10.60561085,0.567023359,0.530368681,0.486217926,10.886645,10.715188,13.48724,16.4446,697080.2286,786358.1694,909698.1005,465504.4421,402545.9018,391214.8976,14803149824,10904800256,8883678208,247.4901123,225.6781158,183.6002502,22.88004532,4,403,Allentown,,,40.63786583,-75.4101489,United States,Northern America
207,1,217.2862306,923.4000092,837.1999969,855.3250122,7.199282169,7.181260705,6.868972063,0.48699031,0.479120159,0.41899355,7.441845,7.587552,9.186442,10.878546,63294.18661,43465.62172,38982.07116,58575.09839,56484.73499,54528.52252,1296387456,1165412352,984595136,16.16733551,14.58533478,12.77546406,43.87024761,4,407,Peterborough,,,44.29704015,-78.33402196,Canada,Northern America
208,1,2.495396524,1154.875031,1074.000031,1064.425034,13.40947008,12.83952236,13.0604043,0.255847263,0.24720864,0.205505271,9.61542,10.001302,13.02404,16.6073,39388.18525,45114.42444,58504.68145,65800.5787,60937.31281,57954.19147,2907828992,2336484864,1858808192,23.83253479,23.72751808,21.0360775,48.81120553,4,408,Atlantic City,,,39.32541544,-74.50015471,United States,Northern America
209,1,183.3683414,1141.775024,994.6250153,1012.175003,9.646534204,9.305022717,9.503879309,0.437393085,0.430668179,0.390750017,10.682625,10.377326,12.67712,15.32166,46939.28897,57874.91603,70416.89417,70372.7636,70947.69547,62373.48547,2287057408,1977310080,1611767424,26.89021111,26.17232895,24.36282349,36.05410072,4,409,Wilkes-Barre,,,41.2536415,-75.88596846,United States,Northern America
210,1,90.29957843,1262.700043,1117.350052,1165.375046,12.00590181,11.68126774,11.92919779,0.550531408,0.530887108,0.501822981,10.008795,10.205306,13.29142,16.62342,293946.2388,340219.7631,458189.5198,76170.46423,70848.6529,70830.65038,2122191488,1683372160,1372169472,27.38048172,26.91789246,23.66142654,25.0024564,4,410,Abington,,,40.17229954,-75.11248273,United States,Northern America
211,1,26.71707789,1251.175018,1138.350037,1208,12.50093627,12.06155872,12.15541935,0.510648125,0.48581488,0.446923689,11.0464,11.18028,14.16778,17.7085,475808.6867,560958.647,709472.8338,202239.5181,192289.3843,177010.8691,7884996096,6500216320,5204186624,61.18784714,60.58094025,54.93430328,31.15521316,4,419,Trenton,,,40.22577813,-74.73161462,United States,Northern America
212,1,9.373616972,1254.500031,1134.125031,1169.550003,12.99253011,12.52556682,12.59238482,0.480191194,0.477085798,0.42899059,9.77916,9.791824,12.84068,16.36232,356761.4647,387964.2194,516406.3807,139792.4027,118462.085,119041.6307,6241070080,4623596032,3678335488,93.25947571,92.45944214,82.88465881,12.20839391,4,428,Toms River,,,39.96415945,-74.16319425,United States,Northern America
213,1,37.77143017,1160.775085,1065.150024,1121.000015,13.03097224,12.71840286,12.63459301,0.493904612,0.493705226,0.45811765,10.5604,10.247822,12.9189,16.08942,31667143.5,38724523.51,50042449.6,15950674.29,15597301.32,14939951.17,6.76E+11,5.56E+11,4.66E+11,3678.075928,3508.587402,3196.827393,32.01712053,4,431,New York,New York,New York,40.77321423,-73.88090455,United States,Northern America
214,1,25.65456568,1244.425018,1120.800003,1228.175018,12.76931119,12.33009291,12.46304631,0.556153652,0.57019795,0.52855742,9.71129,9.791822,12.82538,16.05212,129459.6479,140135.3317,187970.3039,66231.5336,55985.9927,56400.24372,2400033536,1782719872,1418256000,12.211586,11.68761635,10.03623486,26.46844002,4,433,Lakewood,,,40.08927071,-74.22391282,United States,Northern America
215,1,10.22070863,1244.425018,1120.800003,1228.175018,12.76931119,12.33009291,12.46304631,0.533149747,0.529937262,0.48967502,10.68252,10.580028,13.65546,17.39022,1293670.531,1508354.884,1962354.802,376000.7062,351103.7685,338450.3709,16608425984,13436873728,10689803264,223.2949524,220.9296417,196.0127411,16.36735669,4,435,Brick,,,40.190507,-74.06474079,United States,Northern America
216,1,92.26868384,1036.800003,963.4250031,956.1000061,7.925052524,7.7502774,7.408612728,0.467285821,0.472339508,0.436722067,8.0267,8.048444,9.609806,11.57222,190255.5321,122290.0525,105071.9041,97961.94858,88374.72963,81426.76258,2521586944,2083330176,1760094848,31.38123131,29.25401878,26.52125359,38.72081987,4,438,Kingston,,,44.24606848,-76.53681164,Canada,Northern America
217,1,151.6018855,1147.850037,1079.699997,1054.25,7.686012149,7.365882397,7.036458611,0.506953714,0.482609541,0.428465325,8.93451,8.913726,10.771846,12.96258,29428.08794,36333.65911,42746.81537,57208.4709,58347.20783,49201.17643,1543543808,1283440896,1110157440,19.20608902,19.05892563,18.06529236,51.3914739,4,443,Utica,,,43.09479796,-75.25198872,United States,Northern America
218,1,16.48346409,1227.424988,1175.750015,1239.400024,11.40249133,11.04961252,10.86513996,0.545065545,0.542914919,0.509156071,11.27195,10.381724,13.22558,16.16386,148436.8274,174892.2913,227346.0404,80617.93338,77388.07678,73563.70806,3881972992,3325107968,2624789248,36.18283844,34.96665192,29.20133209,18.1650373,4,449,Norwalk,,,41.10655866,-73.40449145,United States,Northern America
219,1,16.56651101,1227.424988,1175.750015,1239.400024,11.40249133,11.04961252,10.86513996,0.502498366,0.49841425,0.459341727,10.464335,9.802056,12.36244,15.06422,752583.0416,887907.0105,1135291.356,541498.6745,516441.9366,480372.9515,23800174592,20241405952,15978250240,207.1936798,203.1200562,185.4264069,23.95477281,4,451,Bridgeport,,,41.23347258,-73.05220162,United States,Northern America
220,1,105.8292425,1025.300003,1008.350006,997.2000275,9.621221304,9.393126965,9.334177256,0.512801876,0.495224811,0.440732898,8.875675,8.72441,10.661452,12.38934,130247.9314,152823.5212,185132.2725,91064.14059,85440.20918,75486.02549,3022415872,2327757568,2013475840,32.62855148,31.63189888,30.45266342,25.36045248,4,460,Schenectady,,,42.79651219,-73.93488862,United States,Northern America
221,1,139.559286,1219.775024,1190.700012,1265.025024,10.1999619,9.778003216,9.801427603,0.536279229,0.528556274,0.480193715,9.25968,8.51275,10.812202,13.17202,107940.4725,126828.5162,158929.8404,96336.38968,91491.96182,83709.99342,3892117760,3296156928,2601935872,31.49048615,31.02414703,28.89205551,28.52396854,4,461,Waterbury,,,41.5604521,-73.03874947,United States,Northern America
222,1,103.3608634,999.0750122,933.6000214,900.8500214,6.633110762,6.46277523,6.205799699,0.535292706,0.533779578,0.51996265,6.72651,6.799004,8.079574,9.227616,145509.6134,83424.54786,66847.93331,79580.61882,62804.89613,53082.32733,1870142464,1365437184,1153585408,20.19871902,16.38601685,11.17113209,46.34452868,4,462,Kanata,,,45.31444927,-75.89805436,Canada,Northern America
223,1,94.09456712,999.0750122,933.6000214,900.8500214,6.633110762,6.46277523,6.205799699,0.490016353,0.541800033,0.527245838,6.50907,6.611948,7.86062,9.130888,295516.2349,168924.1442,136092.8939,74984.20984,58951.95581,49619.93896,1146854272,833810560,704442176,16.56266594,11.51846123,5.639893055,42.55302582,4,465,Honey Gables,,,45.27913671,-75.72842334,Canada,Northern America
224,1,39.57004144,1025.300003,1008.350006,997.2000275,9.621221304,9.393126965,9.334177256,0.539709342,0.492946966,0.462020785,9.28227,8.78067,10.769096,12.41974,147838.4631,174087.2835,213814.8354,76268.87146,73002.29663,65609.68874,2445632768,1923735552,1664002688,29.18016624,27.32577324,26.2264328,25.20977374,4,469,Troy,,,42.74942926,-73.6938256,United States,Northern America
225,1,37.32810966,1170.400055,1157.825012,1246.024994,10.90765047,10.57145715,10.46565771,0.515315974,0.518474454,0.481750389,10.038755,9.366868,11.4413,13.82386,452593.4607,532966.2075,657994.4969,313698.5459,299197.035,268371.6797,14117371904,12017097728,9486112768,118.6540146,117.1659927,110.436882,32.83499764,4,474,Hartford,,,41.72777813,-72.70929727,United States,Northern America
226,1,78.71180205,999.0750122,933.6000214,900.8500214,6.633110762,6.46277523,6.205799699,0.531981675,0.524283907,0.510133357,7.239635,7.045394,8.293552,9.777424,461411.4277,269153.9582,218721.764,108094.144,84815.59433,71332.49069,2633827328,1911744384,1615131264,26.74038696,21.98906517,18.1777916,52.24912468,4,479,Orl¨¦ans,,,45.46539906,-75.50306778,Canada,Northern America
227,1,17.3098764,1190.825012,1178.875031,1210.325012,11.26427174,11.04174232,10.71586561,0.518440572,0.50082499,0.445140022,9.332485,8.74161,11.02714,13.11388,927210.8104,1140712.757,1509280.622,591000.8176,595573.9413,572202.7468,20748038144,16960010240,14360699904,253.382019,248.9002686,237.6865387,27.13815461,4,484,Providence,,,41.78361702,-71.40117983,United States,Northern America
228,1,29.7373891,1285.925049,1113.099991,1178.050018,6.008475542,5.929069161,5.368693352,0.496863731,0.498190501,0.461624203,4.32872,4.135774,5.080296,5.939938,67150.94066,38576.06812,31177.22731,67839.48921,53530.97922,45019.75827,968329920,624270720,503247424,22.47538567,20.49460983,18.77505875,49.32215072,4,499,Moncton,,,46.10229786,-64.78347579,Canada,Northern America
229,1,84.25049523,1429.449982,1545.225037,1406.625031,5.878435969,5.990263939,4.906028628,0.503940512,0.496033602,0.450429989,2.703255,2.70222,3.27756,4.143196,179976.858,111039.8746,94087.07366,85082.06322,73324.98261,65825.97628,1499610624,917414144,697755072,26.27387238,24.89891434,23.11863518,54.24649997,4,612,St. John's,,,47.57325293,-52.72891248,Canada,Northern America
230,2,37.56041284,336.875,369.5250092,504.5000076,17.2445097,17.1831975,16.6346426,0.226347033,0.199681948,0.125134503,14.3398,10.431676,12.548164,13.161592,7124.937411,9779.199477,7303.971604,53000.11336,42761.60852,37958.40067,697521920,508151744,357735104,6.525784969,6.359735012,6.359735012,38.66180816,4,642,Los Cristianos,,,28.07007186,-16.7278839,Spain,Europe
231,2,214.9176208,336.875,369.5250092,504.5000076,17.2445097,17.1831975,16.6346426,0.352670832,0.385559135,0.368268671,13.5428,9.699602,11.695518,12.235996,11029.12287,15298.66249,11446.56105,97808.36224,79611.2381,70668.88321,1581148032,1093001344,769464960,2.702950478,2.65631485,2.65631485,17.19391954,4,646,Puerto de la Cruz,,,28.39777499,-16.55290186,Spain,Europe
232,2,32.94455192,968.9500275,924.7500305,1028.925018,4.367707908,4.012095213,3.4821316,0.354595931,0.381821638,0.333541449,5.120965,5.311066,5.308366,6.005806,234731.1369,266405.3317,206529.0622,184356.8065,158419.1421,141982.1164,2776942336,1938189952,1652582912,16.29365921,15.08757687,12.84415531,80.45405531,4,654,Reykjavik,,,64.11728904,-21.88496011,Iceland,Europe
233,1,173.4758924,1076.250015,980.8000031,951.75,11.87797856,11.64781713,11.8391459,0.58414312,0.525020674,0.512716616,10.93835,10.96448,14.04372,17.18766,74688.41471,80565.15026,92430.83911,59345.54544,51256.09781,44323.87923,2114336128,1485243520,1227009152,40.08230209,35.47543716,28.38828659,31.55790441,4,2352,Hagerstown,,,39.64151777,-77.7314439,United States,Northern America
234,2,85.96338747,876.9250259,837.7250061,822.1500244,17.50232983,17.10311079,17.31099558,0.357911642,0.334055394,0.107916585,11.59775,10.69839,12.78484,11.55652,2359734.777,3668937.249,2974461.045,1958520.774,1886879.301,1773500.951,47507738624,45111402496,33536323584,228.6451263,223.1585846,186.8564758,59.55701309,4,682,Lisbon,,,38.74193979,-9.22688201,Portugal,Europe
235,2,31.50451349,876.9250259,837.7250061,822.1500244,17.50232983,17.10311079,17.31099558,0.366545426,0.330616104,0.172858109,12.0188,11.08424,13.02504,12.11792,166887.5895,456936.8141,385897.5273,100681.1921,93524.78647,85278.50613,1911750912,1766576000,1313293184,18.36971855,17.82276154,14.67192364,35.19303545,4,685,Amora,,,38.60691971,-9.097419206,Portugal,Europe
236,2,13.3879625,876.9250259,837.7250061,822.1500244,17.50232983,17.10311079,17.31099558,0.301128826,0.276296634,0.119551706,12.31645,11.131634,12.6566,12.2268,169345.6297,685867.6851,596813.1206,110189.1925,112396.2269,109011.2627,1488801024,1419315840,1055135936,13.20232391,13.05280209,11.72956467,52.83971596,4,687,Barreiro,,,38.65561805,-9.048832658,Portugal,Europe
237,2,30.06980626,804.4250183,788.4250183,762.8250275,17.57893276,17.18778515,17.38737679,0.311278385,0.294368783,0.104961262,12.40875,11.57212,13.92606,12.80954,92863.884,141579.2729,100518.7134,86536.79359,79273.39597,71558.8051,1851724928,1697891968,1262232704,8.699920654,8.570127487,7.027463913,73.30350978,4,690,Set¨²bal,,,38.5276079,-8.879642214,Portugal,Europe
238,2,20.90805777,1271.399994,1277.275024,1209.650024,9.770909786,9.818649769,9.742877245,0.471321513,0.466914328,0.458246687,6.715255,6.417866,6.981762,7.287648,23932.89465,34569.10786,29002.5427,65711.09332,60796.27637,62038.07288,881350592,660346624,338767488,9.924845696,9.436729431,8.025367737,23.48322434,4,695,Galway,,,53.27687799,-9.053558274,Ireland,Europe
239,2,156.7287299,1086.850021,1320.700012,1050.950012,12.66518235,12.33261871,12.44084573,0.419566723,0.361541652,0.281478444,12.52,13.74356,15.16672,13.627,12942.43794,21583.82557,18232.98034,67683.9856,80476.85522,97683.56995,851621184,809267072,671794560,7.588936329,7.397587299,6.358523369,47.12051423,4,699,Ourense,,,42.33682793,-7.866617826,Spain,Europe
240,2,36.13672675,1058.825027,1080.850021,983.0250397,10.63119483,10.65137839,10.58176398,0.458478895,0.455703802,0.451946992,8.070975,8.14866,8.43859,9.006898,57305.83866,80484.66364,65624.34045,138513.9213,136740.0737,141713.0568,3656160256,2903301632,1219066112,20.73959732,19.93623734,19.01055336,24.65452916,4,704,Cork,,,51.89185967,-8.458997015,Ireland,Europe
241,2,47.30122802,454.5250015,529.8250122,587.5999985,18.58612633,18.25196028,18.31087685,0.271283856,0.276311466,0.19193612,15.4586,14.26598,16.47298,15.99326,48295.12688,72643.56665,57643.78161,64826.56769,59270.47651,71451.20253,787270208,631223104,518130240,9.890324593,8.136585236,5.672933578,42.22781842,4,716,Dos Hermanas,,,37.28550827,-5.929990678,Spain,Europe
242,2,706.6696569,433.2750092,499.2250061,441.3500061,12.62942004,12.33776069,12.31737781,0.289442046,0.27282857,0.133390243,9.976985,11.20561,11.92816,10.995316,118051.0665,183182.1322,146601.1689,290635.784,294135.7859,310434.6103,5240692736,4477637632,3327847936,34.91054535,31.48807526,25.79448509,56.41142108,4,728,Valladolid,,,41.632039,-4.730800315,Spain,Europe
243,1,168.6709231,1208.425018,1168.575043,1244.950012,9.959961653,9.785559654,9.572073936,0.588123329,0.573029483,0.529321424,9.112845,8.387092,10.621288,12.84108,238344.1526,274671.9549,349978.9793,209662.1348,193780.0109,182810.4878,8628280320,6827315200,5143469568,84.08383942,79.04423523,69.04973602,31.62159505,4,2387,Worcester,,,42.26435452,-71.7885177,United States,Northern America
244,1,64.42174963,1190.825012,1178.875031,1210.325012,11.26427174,11.04174232,10.71586561,0.55606086,0.530781301,0.466252705,9.04731,8.359088,10.58383,12.71454,40568.32956,48334.46494,62987.35426,51840.77261,51773.84647,49840.62042,1725833344,1443703168,1147763072,19.92068863,19.49876404,18.87626076,21.78426503,4,2388,Woonsocket,Woonsocket,,41.99878116,-71.49488354,United States,Northern America
245,1,25.22223532,1068.200012,1002.525009,964.7250214,6.477524757,6.208677292,5.813096166,0.544231458,0.542278669,0.535042518,7.915605,7.670538,9.208132,10.63784,74227.10897,35900.52864,26096.44884,52156.32027,34040.88518,25251.93427,1127139072,631383424,531703168,19.54533005,13.85382557,10.90701485,43.53187108,4,2389,Vaudreuil-Dorion,Vaudreuil-Dorion,,45.38799317,-74.01707316,Canada,Northern America
246,2,743.8807047,495.6750183,570,487.5750122,12.37192512,12.06349182,12.04743028,0.28857708,0.273571865,0.146409922,10.474265,12.04566,12.4798,11.41072,4671.878496,7797.093727,6596.123096,67080.59033,75929.56396,85245.00513,997427392,1019062080,852473984,7.379316807,6.926856041,5.757168293,59.43368941,4,733,Palencia,,,42.0086188,-4.526005642,Spain,Europe
247,2,48.20646202,1301.375,1418.700043,1042.675049,11.81161118,11.80884075,11.65289783,0.452758118,0.426048839,0.328630022,9.394985,9.312078,10.430918,10.232736,26764.66818,43761.85427,43842.54245,142526.8432,157932.4638,169997.4387,2434118912,2639038464,2051452544,37.96430206,36.98352432,35.49986649,26.48919282,4,736,Brest,,,48.39702114,-4.476812531,France,Europe
248,2,908.5353838,467.4249954,532.6250153,508.8750076,11.60672879,11.2096982,11.24920559,0.332126876,0.34144989,0.198662041,10.75465,11.412548,12.88816,11.71678,8926.757956,12584.66154,9556.262426,60186.34192,51872.50665,49904.57486,1044657088,866726528,610494016,7.458883286,7.247648239,5.875417709,54.3708413,4,742,Collado Villalba,,,40.63273388,-4.006651075,Spain,Europe
249,2,633.0616229,421.3000107,413.875,411.0750122,15.37269855,15.01765418,14.99409676,0.272717867,0.283937323,0.133920377,11.74615,12.00052,13.91368,12.85122,7919.091486,11997.145,9553.233564,72784.61534,70625.16664,73033.37189,1181322624,1193867776,1006104384,7.139277458,6.507153034,5.108338356,25.2632153,4,743,Ciudad Real,,,38.97846676,-3.918952889,Spain,Europe
250,2,54.38431742,1631.399994,1595.500061,1574.950043,9.071080446,9.026850224,8.89541769,0.485960348,0.459419016,0.412044909,6.02162,6.17946,7.050202,7.304258,11638.19899,18158.75178,18648.47709,62837.36624,67018.83477,71986.85468,926362496,814908544,695296000,12.0603447,11.78498173,11.70693684,19.16120524,4,744,Greenock,,,55.94359731,-4.753687078,United Kingdom,Europe
251,2,42.637044,936.7750092,949.1250305,846.7500153,12.37605715,12.10789371,12.1437211,0.403264513,0.409132024,0.252004778,8.89088,9.866276,10.17532,9.272852,9489.657871,14176.86221,11128.21175,53440.64935,50339.38245,50074.66962,601541760,501594240,414967520,5.74407959,5.630084038,5.463455677,51.24493588,4,745,Torrelavega,,,43.34540546,-4.053326128,Spain,Europe
252,2,654.6248075,356.1250076,399.3000031,383.4500046,15.71408033,15.29518914,15.33738494,0.297361956,0.288568564,0.131481157,12.0058,12.5318,13.8467,13.02458,2896900.959,4101638.572,3136846.128,4894294.602,4133153.779,3834683.248,1.30E+11,1.09E+11,76654436352,388.3514099,361.7317505,286.8251343,54.00707139,4,746,Madrid,Madrid,,40.40404665,-3.708166287,Spain,Europe
253,2,497.4958944,439.3000107,437.3000031,443.2750015,16.5178442,16.15878701,16.1767261,0.25621874,0.278327538,0.20740781,12.3288,12.41934,14.19194,12.99284,6607.446802,10735.74247,8759.307777,66540.93469,72871.0354,87687.34912,627385536,566083072,523974720,6.244109154,6.019184113,5.439391136,43.25850805,4,747,Ja¨¦n,,,37.78047938,-3.787381093,Spain,Europe
254,2,14.13012072,1623.000031,1561.275055,1522.125031,8.748214483,8.715487003,8.585012436,0.450836125,0.443733489,0.396401372,9.27021,8.840688,8.449694,10.857708,17772.67,26363.77896,27568.90288,52581.45615,52885.42173,54641.85452,860402368,712163648,607631936,12.4940567,12.23192978,11.91297817,21.7193588,4,748,Ayr,,,55.47153369,-4.616059917,United Kingdom,Europe
255,2,62.69790308,1146.550018,1087.575043,974.6750183,13.1806612,12.94861865,12.89656281,0.341879756,0.288272393,0.177396953,11.11405,12.17966,12.64322,11.85402,258606.4429,407049.9639,331547.587,778581.8149,810614.042,863705.5569,19126337536,17056789504,13049882624,48.16207123,46.66727448,44.51321411,62.49228286,4,751,Bilbao,,,43.29752228,-2.972245446,Spain,Europe
256,2,140.1933821,1033.600037,1004.175018,943.6750183,8.393083215,8.353071451,8.205011964,0.494471158,0.463855969,0.434531183,8.14519,8.539326,9.436338,9.84933,9575.977583,12622.31198,11706.24413,54048.2457,47439.30086,44707.39629,854214848,616645696,526134048,7.581604004,7.067904949,6.676047325,36.02400235,4,753,Livingston,,,55.89190313,-3.520254421,United Kingdom,Europe
257,2,29.54534765,1107.800018,1120.650024,904.3000183,10.53250766,10.55362105,10.45763922,0.449888123,0.424028121,0.35375335,12.70725,12.77708,13.88948,14.32238,198407.5888,286252.9999,371453.7641,369087.582,313165.507,288832.8967,5414187520,4008584448,3735226624,63.98707581,62.90847015,61.82598877,22.34700045,4,755,Cardiff,,,51.49033763,-3.179280177,United Kingdom,Europe
258,2,57.59246236,960.0000305,949.2500153,848.1500244,8.797056198,8.754297972,8.585782766,0.443254421,0.418623915,0.375802448,8.87766,9.289266,10.279572,10.770046,47405.93778,66028.99181,63742.85897,57256.93955,54371.94857,54164.8252,816690752,635369472,542109696,10.84977627,10.45188141,10.18877983,20.10175593,4,756,Dunfermline,,,56.05211088,-3.438056251,United Kingdom,Europe
259,2,25.92791166,1107.800018,1120.650024,904.3000183,10.53250766,10.55362105,10.45763922,0.509382146,0.478048465,0.415214864,12.6967,12.70934,13.92266,13.82168,7607.687343,10403.67259,9754.207776,56457.64368,51306.59985,49444.97339,968726336,748412032,593194304,10.63731766,10.32388496,10.01898766,16.37160512,4,760,Taunton,,,51.0169862,-3.099215388,United Kingdom,Europe
260,2,79.73299573,1049.824997,1051.075012,822.1500092,10.26808023,10.31091547,10.14430547,0.522239347,0.492078716,0.398412007,11.9118,11.77394,13.03476,13.61528,17899.25301,25064.44411,24414.01834,81310.87219,77629.11841,77484.70361,1505990400,1259695744,998439744,11.94438362,11.72825623,11.58733654,10.57190111,4,763,Bath,,,51.38014148,-2.372471315,United Kingdom,Europe
261,2,150.9259061,1421.500061,1435.675018,1135.924988,9.330049038,9.318769217,9.138097525,0.473201178,0.452833384,0.418453172,10.06924,10.811552,11.85832,12.51886,114993.1103,175402.5448,180412.1263,61866.65436,63744.35751,67088.52759,811335424,756426432,639432704,11.89278412,11.62268925,11.33062267,13.30463412,4,767,Rishton,,,53.76145939,-2.37981326,United Kingdom,Europe
